[
{"address":"Київ, вул.Грушевського №4", "title":"ТВО №218 ВД №1", "lat":50.450795, "lng":30.528595999999993},
{"address":"Київ, вул. Городецького 1/3", "title":"ТВО №218 ВД №2", "lat":50.448787, "lng":30.525260000000003},
{"address":"Київ, вул. Ольгинська, 2/4", "title":"ТВО №218 ВД №3", "lat":50.446846, "lng":30.529068999999936},
{"address":"Київ, вул. Круглоуніверситетська 9", "title":"ТВО №218 ВД №4", "lat":50.444335, "lng":30.52347199999997},
{"address":"Київ, провулок Козловського 3", "title":"ТВО №218 ВД №5", "lat":50.441966, "lng":30.527215999999953},
{"address":"Київ, вул. Липська № 15/17", "title":"ТВО №218 ВД №6", "lat":50.443265, "lng":30.534768999999983},
{"address":"Київ, вул.Богмольця 4", "title":"ТВО №218 ВД №7", "lat":50.440318, "lng":30.53115600000001},
{"address":"Київ, вул. Дарвіна, 2", "title":"ТВО №218 ВД №8", "lat":50.44227, "lng":30.52465200000006},
{"address":"Київ, вул. Лютеранська 10", "title":"ТВО №218 ВД №9", "lat":50.4450162, "lng":30.523581499999977},
{"address":"Київ, вул. Липська, 11", "title":"ТВО №218 ВД №10", "lat":50.443744, "lng":30.535243000000037},
{"address":"Київ, вул. Пилипа Орлика 13", "title":"ТВО №218 ВД №11", "lat":50.441244, "lng":30.536744},
{"address":"Київ, вул. Січневого повстання 13", "title":"ТВО №218 ВД №12", "lat":46.45353129999999, "lng":30.70894999999996},
{"address":"Київ, Кловський узвіз, 8", "title":"ТВО №218 ВД №13", "lat":50.44073299999999, "lng":30.537923200000023},
{"address":"Київ, вул. Січневого повстання, 23", "title":"ТВО №218 ВД №14", "lat":46.45353129999999, "lng":30.70894999999996},
{"address":"Київ, вул. Січневого повстання 22", "title":"ТВО №218 ВД №15", "lat":46.45353129999999, "lng":30.70894999999996},
{"address":"Київ, вул. Московська 3", "title":"ТВО №218 ВД №16", "lat":50.442277, "lng":30.545210999999995},
{"address":"Київ, вул. Андрія Іванова 11", "title":"ТВО №218 ВД №17", "lat":50.439593, "lng":30.545564000000013},
{"address":"Київ, вул. Суворова 9", "title":"ТВО №218 ВД №18", "lat":50.437272, "lng":30.547022999999967},
{"address":"Київ, вул. Рибальська №4", "title":"ТВО №218 ВД №19", "lat":50.434616, "lng":30.543682999999987},
{"address":"Київ, проспект Голосіївський, 59 а", "title":"ТВО №218 ВД №20", "lat":50.398402, "lng":30.512125999999967},
{"address":"Київ, вул. П. Мирного 24", "title":"ТВО №218 ВД №21", "lat":50.43406, "lng":30.539244000000053},
{"address":"Київ, вул. П. Мирного 24", "title":"ТВО №218 ВД №22", "lat":50.43406, "lng":30.539244000000053},
{"address":"Київ, Печерський узвіз 13", "title":"ТВО №218 ВД №23", "lat":50.436326, "lng":30.534425000000056},
{"address":"Київ, вул. Лейпцігська 1а", "title":"ТВО №218 ВД №24", "lat":50.4501, "lng":30.523400000000038},
{"address":"Київ, вул. Рибальська 4", "title":"ТВО №218 ВД №25", "lat":50.434616, "lng":30.543682999999987},
{"address":"Київ, вул. Радіальна №5", "title":"ТВО №218 ВД №26", "lat":50.428552, "lng":30.55670800000007},
{"address":"Київ, вул. Лейпцігська 11а", "title":"ТВО №218 ВД №27", "lat":50.4501, "lng":30.523400000000038},
{"address":"Київ, вул. Лейпцігська 11а", "title":"ТВО №218 ВД №28", "lat":50.4501, "lng":30.523400000000038},
{"address":"Київ, Печерський узвіз 13", "title":"ТВО №218 ВД №29", "lat":50.436326, "lng":30.534425000000056},
{"address":"Київ, вул. Мечникова 3", "title":"ТВО №218 ВД №30", "lat":50.437681, "lng":30.529228999999987},
{"address":"Київ,вул. Шовковична, 39/1", "title":"ТВО №218 ВД №31", "lat":50.439871, "lng":30.527068999999983},
{"address":"Київ, бул. Лесі Українки 8", "title":"ТВО №218 ВД №32", "lat":50.436478, "lng":30.527273000000037},
{"address":"Київ, вул. Госпітальна, 18", "title":"ТВО №218 ВД №33", "lat":50.43424599999999, "lng":30.52871700000003},
{"address":"Київ, вул. Арсенальна, 5", "title":"ТВО №218 ВД №34", "lat":50.429891, "lng":30.539219000000003},
{"address":"Київ, вул. Немировича - Данченка 2", "title":"ТВО №218 ВД №35", "lat":50.432045, "lng":30.539876999999933},
{"address":"Київ, вул. Каменєва 1", "title":"ТВО №218 ВД №36", "lat":50.422718, "lng":30.547289999999975},
{"address":"Київ, пров. Лабораторний, 18", "title":"ТВО №218 ВД №37", "lat":50.428084, "lng":30.52801599999998},
{"address":"Київ, вул. Щорса 31", "title":"ТВО №218 ВД №38", "lat":50.428318, "lng":30.53172100000006},
{"address":"Київ, вул. Щорса №31", "title":"ТВО №218 ВД №39", "lat":50.428318, "lng":30.53172100000006},
{"address":"Київ, пров. Лабораторний 24", "title":"ТВО №218 ВД №40", "lat":50.42880100000001, "lng":30.529762000000005},
{"address":"Київ, бул. Лесі Українки 26", "title":"ТВО №218 ВД №41", "lat":50.4258606, "lng":30.53904680000005},
{"address":"Київ, бул. Л. Українки 32 А", "title":"ТВО №218 ВД №42", "lat":50.421406, "lng":30.54358000000002},
{"address":"Київ, бул.Л.Українки 32-А", "title":"ТВО №218 ВД №43", "lat":50.421406, "lng":30.54358000000002},
{"address":"Київ, вул. Івана Кудрі №33", "title":"ТВО №218 ВД №44", "lat":50.41849000000001, "lng":30.538358000000017},
{"address":"Київ, вул. Івана Кудрі 29", "title":"ТВО №218 ВД №45", "lat":50.41698599999999, "lng":30.536474},
{"address":"Київ, вул. Івана Кудрі 22а", "title":"ТВО №218 ВД №46", "lat":50.417568, "lng":30.53900299999998},
{"address":"Київ, вул. Патріса Лумумби 17", "title":"ТВО №218 ВД №47", "lat":50.42052700000001, "lng":30.53513799999996},
{"address":"Київ, вул. Бастіонна №7", "title":"ТВО №218 ВД №48", "lat":50.418762, "lng":30.551778000000013},
{"address":"Київ, вул. Тімірязєва,1", "title":"ТВО №218 ВД №49", "lat":46.393047, "lng":30.742027000000007},
{"address":"Київ, вул. Тімірязева №36", "title":"ТВО №218 ВД №50", "lat":46.398235, "lng":30.739498000000026},
{"address":"Київ, бул. Дружби народів №28/2", "title":"ТВО №218 ВД №51", "lat":50.411203, "lng":30.52919399999996},
{"address":"Київ, вул. Професора Підвисоцького, 14", "title":"ТВО №218 ВД №52", "lat":50.415417, "lng":30.550340000000006},
{"address":"Київ, вул. Бастіона, 7", "title":"ТВО №218 ВД №53", "lat":50.418762, "lng":30.551778000000013},
{"address":"Київ, вул. Катерини Білокур № 3", "title":"ТВО №218 ВД №54", "lat":50.416372, "lng":30.55367899999999},
{"address":"Київ, вул. Катерини Білокур №3", "title":"ТВО №218 ВД №55", "lat":50.416372, "lng":30.55367899999999},
{"address":"Київ, вул. Кіквідзе №33", "title":"ТВО №218 ВД №56", "lat":50.408814, "lng":30.551717000000053},
{"address":"Київ, вул. Кіквідзе, 17/10", "title":"ТВО №218 ВД №57", "lat":50.413094, "lng":30.54932299999996},
{"address":"Київ, вул. Кіквідзе №32", "title":"ТВО №218 ВД №58", "lat":50.40895800000001, "lng":30.550558000000024},
{"address":"Київ, вул. Товарна №1", "title":"ТВО №218 ВД №59", "lat":50.41321199999999, "lng":30.53840600000001},
{"address":"Київ, бул. Дружби народів №12 Б", "title":"ТВО №218 ВД №60", "lat":50.412825, "lng":30.535918000000038},
{"address":"Київ, бул. Дружби народів №12 б", "title":"ТВО №218 ВД №61", "lat":50.412825, "lng":30.535918000000038},
{"address":"Київ, вул. Шота Руставелі 47", "title":"ТВО №218 ВД №62", "lat":50.435172, "lng":30.519087000000013},
{"address":"Київ, вул. Фізкультури №1", "title":"ТВО №218 ВД №63", "lat":50.43154089999999, "lng":30.519096900000022},
{"address":"Київ, вул. Предславинська, 9", "title":"ТВО №218 ВД №64", "lat":50.427097, "lng":30.51983599999994},
{"address":"Київ, вул. Червоноармійська №73", "title":"ТВО №218 ВД №65", "lat":50.427615, "lng":30.517108000000007},
{"address":"Київ, вул. А. Барбюса 9", "title":"ТВО №218 ВД №66", "lat":50.426672, "lng":30.52350899999999},
{"address":"Київ, вул. Предславинська 30 - А", "title":"ТВО №218 ВД №67", "lat":50.423288, "lng":30.521117000000004},
{"address":"Київ, вул. Предславинська 30-А", "title":"ТВО №218 ВД №68", "lat":50.423288, "lng":30.521117000000004},
{"address":"Київ, вул. Патриса Лумумби 13", "title":"ТВО №218 ВД №69", "lat":50.420613, "lng":30.53335900000002},
{"address":"Київ, майдан Незалежності, 2", "title":"ТВО №218 ВД №70", "lat":50.4505951, "lng":30.523226600000044},
{"address":"Київ, вул. Трьохсвятительська, 4", "title":"ТВО №218 ВД №71", "lat":50.454682, "lng":30.524419999999964},
{"address":"Київ, вул. Пушкінська 22,", "title":"ТВО №218 ВД №72", "lat":50.443847, "lng":30.51726400000007},
{"address":"Київ, вул. Пушкінська, 22а", "title":"ТВО №218 ВД №73", "lat":50.44420299999999, "lng":30.516953000000058},
{"address":"Київ, вул. Прорізна №14", "title":"ТВО №218 ВД №74", "lat":50.448812, "lng":30.51775900000007},
{"address":"Київ, вул. Прорізна 19", "title":"ТВО №218 ВД №75", "lat":50.448298, "lng":30.51666499999999},
{"address":"Київ, вул. Леонтовича. 11", "title":"ТВО №218 ВД №76", "lat":50.444672, "lng":30.50985800000001},
{"address":"Київ, вул. Володимирська 1/15", "title":"ТВО №218 ВД №77", "lat":50.45776799999999, "lng":30.518560999999977},
{"address":"Київ, Львівська площа 14", "title":"ТВО №218 ВД №78", "lat":50.454615, "lng":30.50505099999998},
{"address":"Київ, вул. Рейтарська, 22", "title":"ТВО №218 ВД №79", "lat":50.452473, "lng":30.510418999999956},
{"address":"Київ, вул. Артема 27", "title":"ТВО №218 ВД №80", "lat":50.45576399999999, "lng":30.499856000000023},
{"address":"Київ, вул. Смирнова - Ласточкіна  14", "title":"ТВО №218 ВД №81", "lat":50.457391, "lng":30.506077000000005},
{"address":"Київ, вул. Смірнова-Ласточкіна, 22", "title":"ТВО №218 ВД №82", "lat":50.460107, "lng":30.507133000000067},
{"address":"Київ, вул. Некрасівська 4", "title":"ТВО №218 ВД №83", "lat":50.454868, "lng":30.49678199999994},
{"address":"Київ, вул. Тургенівська 71", "title":"ТВО №218 ВД №84", "lat":50.4545435, "lng":30.48983309999994},
{"address":"Київ, вул. Гоголівська 22-24", "title":"ТВО №218 ВД №85", "lat":50.451013, "lng":30.496260000000007},
{"address":"Київ, вул. Гоголівська 31", "title":"ТВО №218 ВД №86", "lat":50.452545, "lng":30.493719000000056},
{"address":"Київ, вул. Коцюбинського Юрія, 9-А", "title":"ТВО №218 ВД №87", "lat":50.453975, "lng":30.498751999999968},
{"address":"Київ, вул. Коцюбинського Юрія, 9", "title":"ТВО №218 ВД №88", "lat":50.453647, "lng":30.497407000000067},
{"address":"Київ, вул. Коцюбинського Михайла, 8-А", "title":"ТВО №218 ВД №89", "lat":50.447011, "lng":30.501711999999998},
{"address":"Київ, вул. Володимирська 58", "title":"ТВО №218 ВД №90", "lat":50.443006, "lng":30.511631999999963},
{"address":"Київ, вул. Саксаганського 100", "title":"ТВО №218 ВД №91", "lat":50.44269, "lng":30.498411000000033},
{"address":"Київ,бульв Шевченка Тараса, 17", "title":"ТВО №218 ВД №92", "lat":50.443563, "lng":30.509402000000023},
{"address":"Київ, вул. Пирогова 9", "title":"ТВО №218 ВД №93", "lat":50.445161, "lng":30.50693899999999},
{"address":"Київ, вул. Б. Хмельницького 62", "title":"ТВО №218 ВД №94", "lat":50.447639, "lng":30.504840999999942},
{"address":"Київ, вул. Ярославів Вал 27", "title":"ТВО №218 ВД №95", "lat":50.452921, "lng":30.50726899999995},
{"address":"Київ, вул. Воровського  27", "title":"ТВО №218 ВД №96", "lat":50.45147, "lng":30.500089000000003},
{"address":"Київ, пров. Чеховський 4-А", "title":"ТВО №218 ВД №97", "lat":50.451533, "lng":30.502462000000037},
{"address":"Київ, бул. Шевченнка 60", "title":"ТВО №218 ВД №98", "lat":50.446776, "lng":30.49487399999998},
{"address":"Київ, пр-т Перемоги 7-А", "title":"ТВО №218 ВД №99", "lat":50.447052, "lng":30.484529000000066},
{"address":"Київ, вул. Тургенєвська 8/14", "title":"ТВО №218 ВД №100", "lat":50.44883799999999, "lng":30.495578000000023},
{"address":"Київ, вул. В. Чорновола 24", "title":"ТВО №218 ВД №101", "lat":50.453511, "lng":30.48382300000003},
{"address":"Київ, вул. В. Чорновола 24", "title":"ТВО №218 ВД №102", "lat":50.453511, "lng":30.48382300000003},
{"address":"Київ, вул. Маршала Рибалка 7/18", "title":"ТВО №218 ВД №103", "lat":50.4548785, "lng":30.481111199999987},
{"address":"Київ, вул. Політехнічна, 3-А", "title":"ТВО №218 ВД №104", "lat":50.449551, "lng":30.467356999999993},
{"address":"Київ, вул. Чорновола В’ячеслава, 28/1", "title":"ТВО №218 ВД №105", "lat":50.451396, "lng":30.482976000000008},
{"address":"Київ, вул. Борщагівська 14", "title":"ТВО №218 ВД №106", "lat":50.44767299999999, "lng":30.469479999999976},
{"address":"Київ п-р. Перемоги, 25", "title":"ТВО №218 ВД №107", "lat":50.44937900000001, "lng":30.46986800000002},
{"address":"Київ вул. Ванди Василевської, 24", "title":"ТВО №218 ВД №108", "lat":50.455506, "lng":30.473844999999983},
{"address":"Київ, вул. Шулявська, 10/12", "title":"ТВО №218 ВД №109", "lat":50.451954, "lng":30.46900400000004},
{"address":"Київ, вул. Шулявська, 10/12", "title":"ТВО №218 ВД №110", "lat":50.451954, "lng":30.46900400000004},
{"address":"Київ, вул. Зоологічна, 6-а", "title":"ТВО №218 ВД №111", "lat":50.459965, "lng":30.464093000000048},
{"address":"Київ, вул. Зоологічна, 3", "title":"ТВО №218 ВД №112", "lat":50.455845, "lng":30.45983100000001},
{"address":"Київ, вул. Коперника, 8", "title":"ТВО №218 ВД №113", "lat":50.459822, "lng":30.48309100000006},
{"address":"Київ, вул. Коперника, 8", "title":"ТВО №218 ВД №114", "lat":50.459822, "lng":30.48309100000006},
{"address":"Київ, вул. Бердичівська, 1", "title":"ТВО №218 ВД №115", "lat":50.458896, "lng":30.479626999999937},
{"address":"Київ, вул. Дегтярівська, 13", "title":"ТВО №218 ВД №116", "lat":50.46116199999999, "lng":30.47772699999996},
{"address":"Київ, вул. Мельникова, 39", "title":"ТВО №218 ВД №117", "lat":50.464505, "lng":30.476687999999967},
{"address":"Київ, вул. Довнар-Запольського, 16", "title":"ТВО №218 ВД №118", "lat":50.463082, "lng":30.474372000000017},
{"address":"Київ, вул. Білоруська, 34", "title":"ТВО №218 ВД №119", "lat":50.46478399999999, "lng":30.473122999999987},
{"address":"Київ, вул. Сім'ї Хохлових, 8", "title":"ТВО №218 ВД №120", "lat":50.46461, "lng":30.463315999999963},
{"address":"Київ, вул. Пугачова, 10", "title":"ТВО №218 ВД №121", "lat":50.470946, "lng":30.470485000000053},
{"address":"Київ, вул. Пугачова, 10", "title":"ТВО №218 ВД №122", "lat":50.470946, "lng":30.470485000000053},
{"address":"Київ, вул. Мануїльського, 32", "title":"ТВО №218 ВД №123", "lat":50.467299, "lng":30.479473999999982},
{"address":"Київ, вул. Мануїльського, 11/19", "title":"ТВО №218 ВД №124", "lat":50.46966399999999, "lng":30.476494000000002},
{"address":"Київ, вул. Мануїльського, 8", "title":"ТВО №218 ВД №125", "lat":50.469649, "lng":30.474415000000022},
{"address":"Київ, пров. Делегатський, 1/28", "title":"ТВО №218 ВД №126", "lat":50.4719501, "lng":30.477744099999995},
{"address":"Київ, вул. Багговутівська, 1", "title":"ТВО №218 ВД №127", "lat":50.471791, "lng":30.47001499999999},
{"address":"Київ, вул. Артёма, 60", "title":"ТВО №218 ВД №128", "lat":50.456775, "lng":30.490001000000007},
{"address":"Київ, вул. Лук'янівська, 5", "title":"ТВО №218 ВД №129", "lat":50.465936, "lng":30.491904999999974},
{"address":"Київ, вул. Половецька, 49", "title":"ТВО №218 ВД №130", "lat":50.464034, "lng":30.48473899999999},
{"address":"Київ, вул. Половецька, 7/13", "title":"ТВО №218 ВД №131", "lat":50.469379, "lng":30.484962999999993},
{"address":"Київ, пров. Татарський, 1", "title":"ТВО №218 ВД №132", "lat":50.46816, "lng":30.48530900000003},
{"address":"Київ, вул. Нагірна, 22", "title":"ТВО №218 ВД №133", "lat":50.471929, "lng":30.483783000000017},
{"address":"Київ, вул. О. Теліги, 15-а", "title":"ТВО №218 ВД №134", "lat":50.472023, "lng":30.445521999999983},
{"address":"Київ, вул. О. Теліги, 15-а", "title":"ТВО №218 ВД №135", "lat":50.472023, "lng":30.445521999999983},
{"address":"Київ, вул. Грекова, 2", "title":"ТВО №218 ВД №136", "lat":48.050001, "lng":37.74368900000002},
{"address":"Київ, вул. М.Берлінського, 9", "title":"ТВО №218 ВД №137", "lat":50.473496, "lng":30.439906000000065},
{"address":"Київ, пр. Перемоги, 21-А", "title":"ТВО №218 ВД №138", "lat":50.449074, "lng":30.471773999999982},
{"address":"Київ, вул. Дегтярівська, 49-г", "title":"ТВО №218 ВД №139", "lat":50.461242, "lng":30.434585999999967},
{"address":"Київ, пр-т Перемоги, 54/1", "title":"ТВО №218 ВД №140", "lat":50.456396, "lng":30.44080299999996},
{"address":"Київ, вул. Шпака, 4", "title":"ТВО №218 ВД №141", "lat":50.45938, "lng":30.431557999999995},
{"address":"Київ, вул. Лагерна, 30-32", "title":"ТВО №218 ВД №142", "lat":50.461204, "lng":30.42846899999995},
{"address":"Київ, вул. Новоукраїнська, 24-а", "title":"ТВО №218 ВД №143", "lat":50.469676, "lng":30.434296000000018},
{"address":"Київ, вул. Новоукраїнська, 24-а", "title":"ТВО №218 ВД №144", "lat":50.469676, "lng":30.434296000000018},
{"address":"Київ, вул. Ризька, 1", "title":"ТВО №218 ВД №145", "lat":50.470486, "lng":30.439914999999928},
{"address":"Київ, вул. О.Теліги, 5", "title":"ТВО №218 ВД №146", "lat":50.467078, "lng":30.445956000000024},
{"address":"Київ, вул. О.Теліги, 5", "title":"ТВО №218 ВД №147", "lat":50.467078, "lng":30.445956000000024},
{"address":"Київ, вул. Бакінська, 12", "title":"ТВО №218 ВД №148", "lat":50.481029, "lng":30.448556999999937},
{"address":"Київ, вул. Бакінська, 12", "title":"ТВО №218 ВД №149", "lat":50.481029, "lng":30.448556999999937},
{"address":"Київ, О.Теліги, 35-а", "title":"ТВО №218 ВД №150", "lat":50.479174, "lng":30.450826000000006},
{"address":"Київ, вул. Котовського, 2", "title":"ТВО №218 ВД №151", "lat":50.387689, "lng":30.686140000000023},
{"address":"Київ, вул. Щусева, 20", "title":"ТВО №218 ВД №152", "lat":50.474864, "lng":30.441765000000032},
{"address":"Київ, вул. Щусева, 20", "title":"ТВО №218 ВД №153", "lat":50.474864, "lng":30.441765000000032},
{"address":"Київ, вул. Вавілових, 8", "title":"ТВО №218 ВД №154", "lat":50.475586, "lng":30.437711000000036},
{"address":"Київ, вул. Житкова, 7-Б", "title":"ТВО №218 ВД №155", "lat":50.477946, "lng":30.435700999999995},
{"address":"Київ, вул. Житкова, 7-б", "title":"ТВО №218 ВД №156", "lat":50.477946, "lng":30.435700999999995},
{"address":"Київ, вул. Котовського, 33", "title":"ТВО №218 ВД №157", "lat":50.478703, "lng":30.431693999999993},
{"address":"Київ, вул. Баумана, 30", "title":"ТВО №218 ВД №158", "lat":50.46708, "lng":30.417844999999943},
{"address":"Київ, вул. Баумана, 8", "title":"ТВО №218 ВД №159", "lat":50.46378, "lng":30.413430000000062},
{"address":"Київ, вул. Щербакова, 18", "title":"ТВО №218 ВД №160", "lat":50.4629713, "lng":30.40580879999993},
{"address":"Київ, вул. Естонська, 8-а", "title":"ТВО №218 ВД №161", "lat":50.464442, "lng":30.409744000000046},
{"address":"Київ, вул. Баумана, 9/12", "title":"ТВО №218 ВД №162", "lat":50.464617, "lng":30.41273000000001},
{"address":"Київ вул. Естонська, 5", "title":"ТВО №218 ВД №163", "lat":50.463697, "lng":30.409582999999998},
{"address":"Київ, вул. В. Піка, 30/32", "title":"ТВО №218 ВД №164", "lat":50.469459, "lng":30.416623000000072},
{"address":"Київ, вул. Щербакова, 58-а", "title":"ТВО №218 ВД №165", "lat":50.473565, "lng":30.41000800000006},
{"address":"Київ, вул. Щербакова, 58-а", "title":"ТВО №218 ВД №166", "lat":50.473565, "lng":30.41000800000006},
{"address":"Київ, вул. Щербакова, 61-г", "title":"ТВО №218 ВД №167", "lat":50.479011, "lng":30.40275900000006},
{"address":"Київ, вул. Щербакова, 61-г", "title":"ТВО №218 ВД №168", "lat":50.479011, "lng":30.40275900000006},
{"address":"Київ, вул. А.Туполева, 20-є", "title":"ТВО №218 ВД №169", "lat":50.47696, "lng":30.401027},
{"address":"Київ, вул. А.Туполева, 20-є", "title":"ТВО №218 ВД №170", "lat":50.47696, "lng":30.401027},
{"address":"Київ, вул. А.Туполева, 22-д", "title":"ТВО №218 ВД №171", "lat":50.479279, "lng":30.39649399999996},
{"address":"Київ, вул. Щербакова, 51-в", "title":"ТВО №218 ВД №172", "lat":50.4751853, "lng":30.401862700000038},
{"address":"Київ, вул. Щербакова, 47-в", "title":"ТВО №218 ВД №173", "lat":50.472941, "lng":30.40378499999997},
{"address":"Київ, вул. Щербакова, 45-а", "title":"ТВО №218 ВД №174", "lat":50.471669, "lng":30.404389000000037},
{"address":"Київ, пр-т Перемоги, 86", "title":"ТВО №218 ВД №175", "lat":50.45915, "lng":30.40341699999999},
{"address":"Київ, пров. Косогірний, 7", "title":"ТВО №218 ВД №176", "lat":50.461009, "lng":30.500760000000014},
{"address":"Київ, бульв. Тараса Шевченка, 16", "title":"ТВО №218 ВД №177", "lat":50.444019, "lng":30.511945999999966},
{"address":"Київ, вул. Підвисоцького, 4Б", "title":"ТВО №218 ВД №178", "lat":50.412422, "lng":30.543150999999966},
{"address":"Київ, вул. Л.Гавро, 4г", "title":"ТВО №219 ВД №1", "lat":50.491546, "lng":30.51043500000003},
{"address":"Київ, вул. М.Залки, 8г", "title":"ТВО №219 ВД №2", "lat":50.494279, "lng":30.515273999999977},
{"address":"Київ, вул. М.Залки, 8г", "title":"ТВО №219 ВД №3", "lat":50.494279, "lng":30.515273999999977},
{"address":"Київ, вул. М.Залки, 8г", "title":"ТВО №219 ВД №4", "lat":50.494279, "lng":30.515273999999977},
{"address":"Київ вул. Л.Гавро, 4г", "title":"ТВО №219 ВД №5", "lat":50.491546, "lng":30.51043500000003},
{"address":"Київ вул. Л.Гавро, 4г", "title":"ТВО №219 ВД №6", "lat":50.491546, "lng":30.51043500000003},
{"address":"Київ вул. Л.Гавро, 3а", "title":"ТВО №219 ВД №7", "lat":50.492727, "lng":30.50565400000005},
{"address":"Київ Оболонський просп., 2-б ", "title":"ТВО №219 ВД №8", "lat":50.498461, "lng":30.49945200000002},
{"address":"Київ Оболонський просп., 2-б ", "title":"ТВО №219 ВД №9", "lat":50.498461, "lng":30.49945200000002},
{"address":"Київ Оболонський просп., 12в ", "title":"ТВО №219 ВД №10", "lat":50.5042972, "lng":30.50197359999993},
{"address":"Київ вул. Л.Гавро, 22а", "title":"ТВО №219 ВД №11", "lat":50.500456, "lng":30.506717999999978},
{"address":"Київ вул. Л.Гавро, 22а", "title":"ТВО №219 ВД №12", "lat":50.500456, "lng":30.506717999999978},
{"address":"Київ вул. Л.Гавро, 22а", "title":"ТВО №219 ВД №13", "lat":50.500456, "lng":30.506717999999978},
{"address":"Київ вул. Л.Гавро, 22а", "title":"ТВО №219 ВД №14", "lat":50.500456, "lng":30.506717999999978},
{"address":"Київ вул. Л.Гавро, 24а", "title":"ТВО №219 ВД №15", "lat":50.500147, "lng":30.508884999999964},
{"address":"Київ вул. Л.Гавро, 24а", "title":"ТВО №219 ВД №16", "lat":50.500147, "lng":30.508884999999964},
{"address":"Київ вул. Л.Гавро, 22а", "title":"ТВО №219 ВД №17", "lat":50.500456, "lng":30.506717999999978},
{"address":"Київ Оболонський просп., 12в", "title":"ТВО №219 ВД №18", "lat":50.5042972, "lng":30.50197359999993},
{"address":"Київ просп. Г.Сталінграду 14б", "title":"ТВО №219 ВД №19", "lat":50.507757, "lng":30.513049000000024},
{"address":"Київ вул. Л.Гавро, 24а", "title":"ТВО №219 ВД №20", "lat":50.500147, "lng":30.508884999999964},
{"address":"Київ просп. Г.Сталінграду, 18", "title":"ТВО №219 ВД №21", "lat":50.509521, "lng":30.508084999999937},
{"address":"Київ просп. Г.Сталінграду, 18", "title":"ТВО №219 ВД №22", "lat":50.509521, "lng":30.508084999999937},
{"address":"Київ Оболонський просп., 16д", "title":"ТВО №219 ВД №23", "lat":50.507741, "lng":30.502858999999944},
{"address":"Київ, просп. Г. Сталінграду, 16", "title":"ТВО №219 ВД №24", "lat":50.509091, "lng":30.509847000000036},
{"address":"Київ Оболонський просп., 16д", "title":"ТВО №219 ВД №25", "lat":50.507741, "lng":30.502858999999944},
{"address":"Київ Оболонський просп., 16д", "title":"ТВО №219 ВД №26", "lat":50.507741, "lng":30.502858999999944},
{"address":"Київ Оболонський просп. 9а ", "title":"ТВО №219 ВД №27", "lat":50.506391, "lng":30.49692200000004},
{"address":"Київ Оболонський просп. 9а ", "title":"ТВО №219 ВД №28", "lat":50.506391, "lng":30.49692200000004},
{"address":"Київ Оболонський просп. 9а ", "title":"ТВО №219 ВД №29", "lat":50.506391, "lng":30.49692200000004},
{"address":"Київ Оболонський просп. 16д ", "title":"ТВО №219 ВД №30", "lat":50.507741, "lng":30.502858999999944},
{"address":"Київ Оболонський просп. 12в", "title":"ТВО №219 ВД №31", "lat":50.5042972, "lng":30.50197359999993},
{"address":"Київ Оболонський просп. 9б", "title":"ТВО №219 ВД №32", "lat":50.505791, "lng":30.495795000000044},
{"address":"Київ Оболонський просп., 2б", "title":"ТВО №219 ВД №33", "lat":50.498461, "lng":30.49945200000002},
{"address":"Київ Оболонський просп. 9б ", "title":"ТВО №219 ВД №34", "lat":50.505791, "lng":30.495795000000044},
{"address":"Київ Вул. Малиновського, 11в", "title":"ТВО №219 ВД №35", "lat":50.503249, "lng":30.493220000000065},
{"address":"Київ Оболонський просп. 9б", "title":"ТВО №219 ВД №36", "lat":50.505791, "lng":30.495795000000044},
{"address":"Київ Оболонський просп. 9а ", "title":"ТВО №219 ВД №37", "lat":50.506391, "lng":30.49692200000004},
{"address":"Київ просп. Г.Сталінграду, 39г", "title":"ТВО №219 ВД №38", "lat":50.51723, "lng":30.504081000000042},
{"address":"Київ просп. Г.Сталінграду, 39г", "title":"ТВО №219 ВД №39", "lat":50.51723, "lng":30.504081000000042},
{"address":"Київ просп. Г.Сталінграду, 39г", "title":"ТВО №219 ВД №40", "lat":50.51723, "lng":30.504081000000042},
{"address":"Київ просп. Г.Сталінграду, 39г", "title":"ТВО №219 ВД №41", "lat":50.51723, "lng":30.504081000000042},
{"address":"Київ Оболонський просп., 32 б", "title":"ТВО №219 ВД №42", "lat":50.51659799999999, "lng":30.50314400000002},
{"address":"Київ Оболонський просп., 32 б", "title":"ТВО №219 ВД №43", "lat":50.51659799999999, "lng":30.50314400000002},
{"address":"Київ просп. Г.Сталінграду, 47", "title":"ТВО №219 ВД №44", "lat":50.51801, "lng":30.511330000000044},
{"address":"Київ Оболонський просп., 32 б", "title":"ТВО №219 ВД №45", "lat":50.51659799999999, "lng":30.50314400000002},
{"address":"Київ просп. Г.Сталінграду, 47", "title":"ТВО №219 ВД №46", "lat":50.51801, "lng":30.511330000000044},
{"address":"Київ просп. Г.Сталінграду, 47", "title":"ТВО №219 ВД №47", "lat":50.51801, "lng":30.511330000000044},
{"address":"Київ вул. Прирічна, 19 є", "title":"ТВО №219 ВД №48", "lat":50.520786, "lng":30.517395999999962},
{"address":"Київ вул. Прирічна, 19 є", "title":"ТВО №219 ВД №49", "lat":50.520786, "lng":30.517395999999962},
{"address":"Київ вул. Прирічна, 19є", "title":"ТВО №219 ВД №50", "lat":50.520786, "lng":30.517395999999962},
{"address":"Київ вул. Прирічна, 27б", "title":"ТВО №219 ВД №51", "lat":50.522734, "lng":30.51875599999994},
{"address":"Київ вул. Прирічна, 27б", "title":"ТВО №219 ВД №52", "lat":50.522734, "lng":30.51875599999994},
{"address":"Київ просп. Г.Сталінграду, 58б", "title":"ТВО №219 ВД №53", "lat":50.526579, "lng":30.518759000000045},
{"address":"Київ просп. Г.Сталінграду, 58 б", "title":"ТВО №219 ВД №54", "lat":50.526579, "lng":30.518759000000045},
{"address":"Київ вул. Героїв Дніпра 32в", "title":"ТВО №219 ВД №55", "lat":50.519896, "lng":30.503473999999983},
{"address":"Київ вул. Північна, 8", "title":"ТВО №219 ВД №56", "lat":50.5271, "lng":30.50614399999995},
{"address":"Київ вул. Північна, 8", "title":"ТВО №219 ВД №57", "lat":50.5271, "lng":30.50614399999995},
{"address":"Київ вул. Північна, 22", "title":"ТВО №219 ВД №58", "lat":50.524931, "lng":30.507761999999957},
{"address":"Київ вул. Північна, 26", "title":"ТВО №219 ВД №59", "lat":50.527145, "lng":30.509618000000046},
{"address":"Київ вул. Північна, 26", "title":"ТВО №219 ВД №60", "lat":50.527145, "lng":30.509618000000046},
{"address":"Київ вул. Північна, 26", "title":"ТВО №219 ВД №61", "lat":50.527145, "lng":30.509618000000046},
{"address":"Київ просп. Г.Сталінграду, 57", "title":"ТВО №219 ВД №62", "lat":50.523429, "lng":30.513760000000048},
{"address":"Київ вул. Тимошенка, 2з", "title":"ТВО №219 ВД №63", "lat":50.50643549999999, "lng":30.48631850000004},
{"address":"Київ вул. Богатирська, 2б", "title":"ТВО №219 ВД №64", "lat":50.511904, "lng":30.48826299999996},
{"address":"Київ вул. Богатирська, 2б", "title":"ТВО №219 ВД №65", "lat":50.511904, "lng":30.48826299999996},
{"address":"Київ вул. Богатирська, 2б", "title":"ТВО №219 ВД №66", "lat":50.511904, "lng":30.48826299999996},
{"address":"Київ вул. Богатирська, 2в", "title":"ТВО №219 ВД №67", "lat":50.513127, "lng":30.487851999999975},
{"address":"Київ вул. Богатирська, 2в", "title":"ТВО №219 ВД №68", "lat":50.513127, "lng":30.487851999999975},
{"address":"Київ вул. Богатирська, 2в", "title":"ТВО №219 ВД №69", "lat":50.513127, "lng":30.487851999999975},
{"address":"Київ вул. Г.Дніпра, 10б", "title":"ТВО №219 ВД №70", "lat":50.51932129999999, "lng":30.490949900000032},
{"address":"Київ вул. Г.Дніпра, 10б", "title":"ТВО №219 ВД №71", "lat":50.51932129999999, "lng":30.490949900000032},
{"address":"Київ вул. З.Гайдай, 10в", "title":"ТВО №219 ВД №72", "lat":50.518437, "lng":30.493807999999945},
{"address":"Київ вул. З.Гайдай, 10в", "title":"ТВО №219 ВД №73", "lat":50.518437, "lng":30.493807999999945},
{"address":"Київ вул. Г.Дніпра, 22б", "title":"ТВО №219 ВД №74", "lat":50.52073, "lng":30.49591399999997},
{"address":"Київ вул. Г.Дніпра, 10б", "title":"ТВО №219 ВД №75", "lat":50.51932129999999, "lng":30.490949900000032},
{"address":"Київ вул. Богатирська, 6а", "title":"ТВО №219 ВД №76", "lat":50.518622, "lng":30.484954000000016},
{"address":"Київ вул. Озерна, 2а", "title":"ТВО №219 ВД №77", "lat":50.523418, "lng":30.488606000000004},
{"address":"Київ вул. Озерна, 2а", "title":"ТВО №219 ВД №78", "lat":50.523418, "lng":30.488606000000004},
{"address":"Київ вул. Озерна, 2б", "title":"ТВО №219 ВД №79", "lat":50.524458, "lng":30.48858599999994},
{"address":"Київ вул. Озерна, 2б", "title":"ТВО №219 ВД №80", "lat":50.524458, "lng":30.48858599999994},
{"address":"Київ вул. Озерна, 2а", "title":"ТВО №219 ВД №81", "lat":50.523418, "lng":30.488606000000004},
{"address":"Київ вул. Фрунзе, 164", "title":"ТВО №219 ВД №82", "lat":50.495192, "lng":30.46011699999997},
{"address":"Київ вул. Вишгородська, 6", "title":"ТВО №219 ВД №83", "lat":50.498983, "lng":30.454759999999965},
{"address":"Київ вул. Вишгородська, 6", "title":"ТВО №219 ВД №84", "lat":50.498983, "lng":30.454759999999965},
{"address":"Київ вул. Вишгородська, 6", "title":"ТВО №219 ВД №85", "lat":50.498983, "lng":30.454759999999965},
{"address":"Київ вул. Агрегатна 9", "title":"ТВО №219 ВД №86", "lat":50.50291199999999, "lng":30.45739900000001},
{"address":"Київ вул. Попова, 1", "title":"ТВО №219 ВД №87", "lat":50.500558, "lng":30.453990999999974},
{"address":"Київ вул. Макіївська, 5", "title":"ТВО №219 ВД №88", "lat":50.507728, "lng":30.453859999999963},
{"address":"Київ вул. Макіївська, 5", "title":"ТВО №219 ВД №89", "lat":50.507728, "lng":30.453859999999963},
{"address":"Київ вул. Макіївська, 5", "title":"ТВО №219 ВД №90", "lat":50.507728, "lng":30.453859999999963},
{"address":"Київ вул. Макіївська, 5", "title":"ТВО №219 ВД №91", "lat":50.507728, "lng":30.453859999999963},
{"address":"Київ вул. Вишгородська, 42/1", "title":"ТВО №219 ВД №92", "lat":50.51243299999999, "lng":30.450992000000042},
{"address":"Київ вул. Вишгородська, 42/1", "title":"ТВО №219 ВД №93", "lat":50.51243299999999, "lng":30.450992000000042},
{"address":"Київ вул. Автозаводська, 83", "title":"ТВО №219 ВД №94", "lat":50.515793, "lng":30.45466799999997},
{"address":"Київ вул. Кондратюка, 4б", "title":"ТВО №219 ВД №95", "lat":50.524074, "lng":30.456631000000016},
{"address":"Київ вул. Полярна,8в", "title":"ТВО №219 ВД №96", "lat":50.51607, "lng":30.463445999999976},
{"address":"Київ вул. Полярна, 8в", "title":"ТВО №219 ВД №97", "lat":50.51607, "lng":30.463445999999976},
{"address":"Київ вул. Полярна,8в", "title":"ТВО №219 ВД №98", "lat":50.51607, "lng":30.463445999999976},
{"address":"Київ вул. Полярна,8в", "title":"ТВО №219 ВД №99", "lat":50.51607, "lng":30.463445999999976},
{"address":"Київ вул. Майорова, 3а", "title":"ТВО №219 ВД №100", "lat":50.520884, "lng":30.463341000000014},
{"address":"Київ вул. Рокосовського, 5", "title":"ТВО №219 ВД №101", "lat":50.515972, "lng":30.793519999999944},
{"address":"Київ вул. Рокосовського, 5", "title":"ТВО №219 ВД №102", "lat":50.515972, "lng":30.793519999999944},
{"address":"Київ вул. Рокосовського, 5", "title":"ТВО №219 ВД №103", "lat":50.515972, "lng":30.793519999999944},
{"address":"Київ вул. Майорова, 3а", "title":"ТВО №219 ВД №104", "lat":50.520884, "lng":30.463341000000014},
{"address":"Київ вул. Майорова, 3а", "title":"ТВО №219 ВД №105", "lat":50.520884, "lng":30.463341000000014},
{"address":"Київ, вул. Богатирська, 23", "title":"ТВО №219 ВД №106", "lat":50.525698, "lng":30.482387000000017},
{"address":"Київ, вул. Автозаводська, 68", "title":"ТВО №219 ВД №107", "lat":50.512953, "lng":30.45703800000001},
{"address":"Київ вул. Кондратюка, 6", "title":"ТВО №219 ВД №108", "lat":50.52336, "lng":30.463995000000068},
{"address":"Київ вул. Дніпроводська, 13/1", "title":"ТВО №219 ВД №109", "lat":50.567121, "lng":30.464298999999983},
{"address":"Київ вул. Лісова, 28", "title":"ТВО №219 ВД №110", "lat":50.391267, "lng":30.70241299999998},
{"address":"Київ вул. Червонофлотська, 18", "title":"ТВО №219 ВД №111", "lat":50.53039700000001, "lng":30.362297000000012},
{"address":"Київ, вул. Червонофлотська, 26", "title":"ТВО №219 ВД №112", "lat":50.533675, "lng":30.35871499999996},
{"address":"Київська область, смт Гостомель", "title":"ТВО №219 ВД №113", "lat":50.5691667, "lng":30.265277800000035},
{"address":"Київ,  вул. Кондратюка, 8", "title":"ТВО №219 ВД №114", "lat":50.524836, "lng":30.463999000000058},
{"address":"Київ,  вул. Покровська, 4-6", "title":"ТВО №219 ВД №115", "lat":50.461405, "lng":30.519218000000023},
{"address":"Київ вул. Спаська, 16", "title":"ТВО №219 ВД №116", "lat":50.467008, "lng":30.520111000000043},
{"address":"Київ,  вул. Григорія Сковороди, 2", "title":"ТВО №219 ВД №117", "lat":50.4651794, "lng":30.519505799999934},
{"address":"Київ вул. Фрунзе, 8", "title":"ТВО №219 ВД №118", "lat":50.467517, "lng":30.509281999999985},
{"address":"Київ, вул. Верхній Вал, 70", "title":"ТВО №219 ВД №119", "lat":50.471483, "lng":30.52123800000004},
{"address":"Київ вул. Волоська, 47 ", "title":"ТВО №219 ВД №120", "lat":50.471402, "lng":30.51209700000004},
{"address":"Київ вул.Фрунзе,19-21", "title":"ТВО №219 ВД №121", "lat":50.468297, "lng":30.505420999999956},
{"address":"Київ вул. Волоська, 62", "title":"ТВО №219 ВД №122", "lat":50.472787, "lng":30.51130999999998},
{"address":"Київ вул. Межигірська, 43", "title":"ТВО №219 ВД №123", "lat":50.470715, "lng":30.508898000000045},
{"address":"Київ вул. Електриків, 26", "title":"ТВО №219 ВД №124", "lat":50.475962, "lng":30.529011999999966},
{"address":"Київ вул. Електриків, 26", "title":"ТВО №219 ВД №125", "lat":50.475962, "lng":30.529011999999966},
{"address":"Київ, вул. Тульчинська, 5", "title":"ТВО №219 ВД №126", "lat":50.484417, "lng":30.47826699999996},
{"address":"Київ вул.Фрунзе,105", "title":"ТВО №219 ВД №127", "lat":50.484129, "lng":30.47397699999999},
{"address":"Київ,  вул. Фрунзе, 103", "title":"ТВО №219 ВД №128", "lat":50.484002, "lng":30.472681999999963},
{"address":"Київ,  вул. Фрунзе, 107", "title":"ТВО №219 ВД №129", "lat":50.485237, "lng":30.473378000000025},
{"address":"Київ вул. Копилівська, 1/7", "title":"ТВО №219 ВД №130", "lat":50.48598800000001, "lng":30.469375000000014},
{"address":"Київ вул. Копилівська, 23", "title":"ТВО №219 ВД №131", "lat":50.486875, "lng":30.467353000000003},
{"address":"Київ вул. Фрунзе, 117", "title":"ТВО №219 ВД №132", "lat":50.489362, "lng":30.466386000000057},
{"address":"Київ вул. Копилівська, 36", "title":"ТВО №219 ВД №133", "lat":50.490353, "lng":30.463592999999946},
{"address":"Київ вул. Сирецька, 25", "title":"ТВО №219 ВД №134", "lat":50.491071, "lng":30.457730999999967},
{"address":"Київ, вул. Північно-Сирецька, 49", "title":"ТВО №219 ВД №135", "lat":50.4869035, "lng":30.427130600000055},
{"address":"Київ вул. М. Гречка, 10А", "title":"ТВО №219 ВД №136", "lat":50.485313, "lng":30.408341999999948},
{"address":"Київ вул. М. Гречка, 10А", "title":"ТВО №219 ВД №137", "lat":50.485313, "lng":30.408341999999948},
{"address":"Київ вул. М. Гречка, 22А", "title":"ТВО №219 ВД №138", "lat":50.493137, "lng":30.408012999999983},
{"address":"Київ вул. М. Гречка, 22А", "title":"ТВО №219 ВД №139", "lat":50.493137, "lng":30.408012999999983},
{"address":"Київ вул. Полкова, 57В", "title":"ТВО №219 ВД №140", "lat":50.492365, "lng":30.42513400000007},
{"address":"Київ вул. Білицька, 41/43", "title":"ТВО №219 ВД №141", "lat":50.49170700000001, "lng":30.436398000000054},
{"address":"Київ, вул. Мостиська, 11", "title":"ТВО №219 ВД №142", "lat":50.499419, "lng":30.444394999999986},
{"address":"Київ вул. Мостицька, 9 ", "title":"ТВО №219 ВД №143", "lat":50.499954, "lng":30.44763899999998},
{"address":"Київ,  Вишгородська,19", "title":"ТВО №219 ВД №144", "lat":50.497872, "lng":30.453168000000005},
{"address":"Київ вул. Мостицька, 16А", "title":"ТВО №219 ВД №145", "lat":50.500986, "lng":30.447452999999996},
{"address":"Київ вул. Мостицька, 16А", "title":"ТВО №219 ВД №146", "lat":50.500986, "lng":30.447452999999996},
{"address":"Київ вул. Новомостицька, 10", "title":"ТВО №219 ВД №147", "lat":50.500066, "lng":30.434754999999996},
{"address":"Київ вул. Новомостицька, 10", "title":"ТВО №219 ВД №148", "lat":50.500066, "lng":30.434754999999996},
{"address":"Київ пров. Квітневий, 4 ", "title":"ТВО №219 ВД №149", "lat":50.500713, "lng":30.43131900000003},
{"address":"Київ пров. Квітневий, 4 ", "title":"ТВО №219 ВД №150", "lat":50.500713, "lng":30.43131900000003},
{"address":"Київ, пр. Григорія Гонгадзе, 7Б", "title":"ТВО №219 ВД №151", "lat":50.466728, "lng":30.521692099999996},
{"address":"Київ,  пр. Пр.Григорія Гонгадзе, 7-А", "title":"ТВО №219 ВД №152", "lat":50.4501, "lng":30.523400000000038},
{"address":"Київ,  пр. Григорія Гонгадзе, 20", "title":"ТВО №219 ВД №153", "lat":50.466728, "lng":30.521692099999996},
{"address":"Київ пр.Григорія Гонгадзе,20", "title":"ТВО №219 ВД №154", "lat":50.466728, "lng":30.521692099999996},
{"address":"Київ пр. Правди, 92", "title":"ТВО №219 ВД №155", "lat":50.506454, "lng":30.41501100000005},
{"address":"Київ пр. Правди, 84", "title":"ТВО №219 ВД №156", "lat":50.50933999999999, "lng":30.415478000000007},
{"address":"Київ пр.Григорія Гонгадзе, 20-Є", "title":"ТВО №219 ВД №157", "lat":50.466728, "lng":30.521692099999996},
{"address":"Київ пр. Правди, 84", "title":"ТВО №219 ВД №158", "lat":50.50933999999999, "lng":30.415478000000007},
{"address":"Київ пр. Свободи, 15/1", "title":"ТВО №219 ВД №159", "lat":50.51315400000001, "lng":30.422739999999976},
{"address":"Київ  вул. Світлицького, 31/7", "title":"ТВО №219 ВД №160", "lat":50.509135, "lng":30.42991900000004},
{"address":"Київ  вул. Світлицького, 31/7", "title":"ТВО №219 ВД №161", "lat":50.509135, "lng":30.42991900000004},
{"address":"Київ пр. Правди, 62Г", "title":"ТВО №219 ВД №162", "lat":50.50456699999999, "lng":30.433316999999988},
{"address":"Київ пр. Правди, 62Г", "title":"ТВО №219 ВД №163", "lat":50.50456699999999, "lng":30.433316999999988},
{"address":"Київ пр. Межовий,7", "title":"ТВО №219 ВД №164", "lat":50.516202, "lng":30.429892999999993},
{"address":"Київ пр. Свободи, 40", "title":"ТВО №219 ВД №165", "lat":50.51610100000001, "lng":30.42566999999997},
{"address":"Київ пр. Межовий, 7 ", "title":"ТВО №219 ВД №166", "lat":50.516202, "lng":30.429892999999993},
{"address":"Київ пр. Свободи, 26", "title":"ТВО №219 ВД №167", "lat":50.513595, "lng":30.425127999999972},
{"address":"Київ вул. Світлицького, 22", "title":"ТВО №219 ВД №168", "lat":50.514847, "lng":30.433002999999985},
{"address":"Київ вул. Світлицького, 22", "title":"ТВО №219 ВД №169", "lat":50.514847, "lng":30.433002999999985},
{"address":"Київ  вул. Межова, 22", "title":"ТВО №219 ВД №170", "lat":50.510817, "lng":30.433475000000044},
{"address":"Київ вул. Межова, 25", "title":"ТВО №219 ВД №171", "lat":50.508734, "lng":30.43270899999993},
{"address":"Київ вул. Западинська, 13", "title":"ТВО №219 ВД №172", "lat":50.5080724, "lng":30.442620900000065},
{"address":"Київ  вул. Западинська, 10", "title":"ТВО №219 ВД №173", "lat":50.50859, "lng":30.443465999999944},
{"address":"Київ вул. Галицька, 5", "title":"ТВО №219 ВД №174", "lat":50.508624, "lng":30.436668000000054},
{"address":"Київ вул. Западинська, 5", "title":"ТВО №219 ВД №175", "lat":50.507855, "lng":30.44742199999996},
{"address":"Київ вул. Червонопільська 11/13", "title":"ТВО №219 ВД №176", "lat":50.511948, "lng":30.43683599999997},
{"address":"Київ вул. Межова 22", "title":"ТВО №219 ВД №177", "lat":50.510817, "lng":30.433475000000044},
{"address":"Київ вул. Осиповського, 9А", "title":"ТВО №219 ВД №178", "lat":50.514029, "lng":30.441978000000063},
{"address":"Київ вул. Вишгородська, 67", "title":"ТВО №219 ВД №179", "lat":50.519129, "lng":30.448875000000044},
{"address":"Київ, Святошинський р-н, вул. М. Булгакова, 12", "title":"ТВО №220 ВД №1", "lat":50.409982, "lng":30.408501},
{"address":"Київ, Святошинський р-н, вул. М. Булгакова, 12", "title":"ТВО №220 ВД №2", "lat":50.409982, "lng":30.408501},
{"address":"Київ, Святошинський р-н, вул. Симиренка, 17", "title":"ТВО №220 ВД №3", "lat":50.40882999999999, "lng":30.403269000000023},
{"address":"Київ, Святошинський р-н, вул. Симиренка, 17", "title":"ТВО №220 ВД №4", "lat":50.40882999999999, "lng":30.403269000000023},
{"address":"Київ, Святошинський р-н, вул. Симиренка, 38", "title":"ТВО №220 ВД №5", "lat":50.406903, "lng":30.406447999999955},
{"address":"Київ, Святошинський р-н, п-т Академіка Корольова, 12м", "title":"ТВО №220 ВД №6", "lat":50.413624, "lng":30.40302500000007},
{"address":"Київ, Святошинський р-н, п-т Академіка Корольова, 12м", "title":"ТВО №220 ВД №7", "lat":50.413624, "lng":30.40302500000007},
{"address":"Київ, Святошинський р-н, вул. Жолудєва, 6-Г", "title":"ТВО №220 ВД №8", "lat":50.416139, "lng":30.39754599999992},
{"address":"Київ, Святошинський р-н, п-т Академіка Корольова, 10-А", "title":"ТВО №220 ВД №9", "lat":50.414738, "lng":30.403849000000037},
{"address":"Київ, Святошинський р-н, п-т Академіка Корольова, 10-А", "title":"ТВО №220 ВД №10", "lat":50.414738, "lng":30.403849000000037},
{"address":"Київ, Святошинський р-н, п-т Академіка Корольова, 12-м", "title":"ТВО №220 ВД №11", "lat":50.413624, "lng":30.40302500000007},
{"address":"Київ, Святошинський р-н, вул. Жолудєва, 6-Г", "title":"ТВО №220 ВД №12", "lat":50.416139, "lng":30.39754599999992},
{"address":"Київ, Святошинський р-н, вул. Жолудєва, 3-Г", "title":"ТВО №220 ВД №13", "lat":50.418184, "lng":30.39818600000001},
{"address":"Київ, Святошинський р-н, вул. Жолудєва, 3-Г", "title":"ТВО №220 ВД №14", "lat":50.418184, "lng":30.39818600000001},
{"address":"Київ, Святошинський р-н, вул. Кільцева дорога, 1-Б", "title":"ТВО №220 ВД №15", "lat":50.4501, "lng":30.523400000000038},
{"address":"Київ, Святошинський р-н, вул. Кільцева дорога, 1-Б", "title":"ТВО №220 ВД №16", "lat":50.4501, "lng":30.523400000000038},
{"address":"Київ, Святошинський р-н, вул. Кільцева дорога, 1-Б", "title":"ТВО №220 ВД №17", "lat":50.4501, "lng":30.523400000000038},
{"address":"Київ, Святошинський р-н, б-р Кольцова, 7-Б", "title":"ТВО №220 ВД №18", "lat":50.417486, "lng":30.381507000000056},
{"address":"Київ, Святошинський р-н, вул. Зодчих, 22", "title":"ТВО №220 ВД №19", "lat":50.416922, "lng":30.37866400000007},
{"address":"Київ, Святошинський р-н, вул. Зодчих, 22", "title":"ТВО №220 ВД №20", "lat":50.416922, "lng":30.37866400000007},
{"address":"Київ, Святошинський р-н, б-р Кольцова, 7-Б", "title":"ТВО №220 ВД №21", "lat":50.417486, "lng":30.381507000000056},
{"address":"Київ, Святошинський р-н, б-р Кольцова, 7-Б", "title":"ТВО №220 ВД №22", "lat":50.417486, "lng":30.381507000000056},
{"address":"Київ, Святошинський р-н, вул. Литвиненко-Вольгемут, 2", "title":"ТВО №220 ВД №23", "lat":50.422168, "lng":30.37561900000003},
{"address":"Київ, Святошинський р-н, вул. Литвиненко-Вольгемут, 2", "title":"ТВО №220 ВД №24", "lat":50.422168, "lng":30.37561900000003},
{"address":"Київ, Святошинський р-н, вул. Литвиненко-Вольгемут, 2", "title":"ТВО №220 ВД №25", "lat":50.422168, "lng":30.37561900000003},
{"address":"Київ, Святошинський р-н, п-т 50-річчя Жовтня, 9-А", "title":"ТВО №220 ВД №26", "lat":50.426234, "lng":30.38007300000004},
{"address":"Київ, Святошинський р-н, п-т 50-річчя Жовтня, 9-А", "title":"ТВО №220 ВД №27", "lat":50.426234, "lng":30.38007300000004},
{"address":"Київ, Святошинський р-н, вул. Генерала Потапова, 12", "title":"ТВО №220 ВД №28", "lat":50.423255, "lng":30.38897099999997},
{"address":"Київ, Святошинський р-н, вул. Генерала Потапова, 12", "title":"ТВО №220 ВД №29", "lat":50.423255, "lng":30.38897099999997},
{"address":"Київ, Святошинський р-н, вул. Генерала Потапова, 12", "title":"ТВО №220 ВД №30", "lat":50.423255, "lng":30.38897099999997},
{"address":"Київ, Святошинський р-н, вул. Картвелішвілі, 9-А", "title":"ТВО №220 ВД №31", "lat":50.422202, "lng":30.384451000000013},
{"address":"Київ, Святошинський р-н, вул. Генерала Потапова, 3", "title":"ТВО №220 ВД №32", "lat":50.425844, "lng":30.38980300000003},
{"address":"Київ, Святошинський р-н, вул. Генерала Потапова, 3", "title":"ТВО №220 ВД №33", "lat":50.425844, "lng":30.38980300000003},
{"address":"Київ, Святошинський р-н, вул. Генерала Потапова, 3", "title":"ТВО №220 ВД №34", "lat":50.425844, "lng":30.38980300000003},
{"address":"Київ, Святошинський р-н, пр. 50-річчя Жовтня, 2-А", "title":"ТВО №220 ВД №35", "lat":50.433536, "lng":30.397558000000004},
{"address":"Київ, Святошинський р-н, вул. Героїв Космосу, 3", "title":"ТВО №220 ВД №36", "lat":50.433296, "lng":30.388852000000043},
{"address":"Київ, Святошинський р-н, вул. Героїв Космосу, 3", "title":"ТВО №220 ВД №37", "lat":50.433296, "lng":30.388852000000043},
{"address":"Київ, Святошинський р-н, вул. Якуба Коласа, 8-А", "title":"ТВО №220 ВД №38", "lat":50.43509, "lng":30.380075000000033},
{"address":"Київ, Святошинський р-н, вул. Гната Юри, 10-Б", "title":"ТВО №220 ВД №39", "lat":50.43318, "lng":30.38086099999998},
{"address":"Київ, Святошинський р-н, вул. Гната Юри, 10-Б", "title":"ТВО №220 ВД №40", "lat":50.43318, "lng":30.38086099999998},
{"address":"Київ, Святошинський р-н, вул. Гната Юри, 10-Б", "title":"ТВО №220 ВД №41", "lat":50.43318, "lng":30.38086099999998},
{"address":"Київ, Святошинський р-н, п-т 50-річчя Жовтня, 10-В", "title":"ТВО №220 ВД №42", "lat":50.43143999999999, "lng":30.376854999999978},
{"address":"Київ, Святошинський р-н, п-т 50-річчя Жовтня, 10-Д", "title":"ТВО №220 ВД №43", "lat":50.430439, "lng":30.37752499999999},
{"address":"Київ, Святошинський р-н, п-т 50-річчя Жовтня, 10-Д", "title":"ТВО №220 ВД №44", "lat":50.430439, "lng":30.37752499999999},
{"address":"Київ, Святошинський р-н, п-т 50-річчя Жовтня, 10-Д", "title":"ТВО №220 ВД №45", "lat":50.430439, "lng":30.37752499999999},
{"address":"Київ, Святошинський р-н, вул. Зодчих, 50-Б", "title":"ТВО №220 ВД №46", "lat":50.42756199999999, "lng":30.367995000000064},
{"address":"Київ, Святошинський р-н, вул. Тулузи, 6", "title":"ТВО №220 ВД №47", "lat":50.430113, "lng":30.368637000000035},
{"address":"Київ, Святошинський р-н, вул. Тулузи, 6", "title":"ТВО №220 ВД №48", "lat":50.430113, "lng":30.368637000000035},
{"address":"Київ, Святошинський р-н, вул. Тулузи, 6", "title":"ТВО №220 ВД №49", "lat":50.430113, "lng":30.368637000000035},
{"address":"Київ, Святошинський р-н, вул. Тулузи, 6-А", "title":"ТВО №220 ВД №50", "lat":50.429965, "lng":30.36871700000006},
{"address":"Київ, Святошинський р-н, вул. Тулузи, 6-А", "title":"ТВО №220 ВД №51", "lat":50.429965, "lng":30.36871700000006},
{"address":"Київ, Святошинський р-н, вул. Жмеринська, 8", "title":"ТВО №220 ВД №52", "lat":50.435451, "lng":30.364318000000026},
{"address":"Київ, Святошинський р-н, вул. Жмеринська, 8", "title":"ТВО №220 ВД №53", "lat":50.435451, "lng":30.364318000000026},
{"address":"Київ, Святошинський р-н, вул. Жмеринська, 8", "title":"ТВО №220 ВД №54", "lat":50.435451, "lng":30.364318000000026},
{"address":"Київ, Святошинський р-н, вул. Янтарна, 5", "title":"ТВО №220 ВД №55", "lat":50.4501, "lng":30.523400000000038},
{"address":"Київ, Святошинський р-н, вул. Петра Чаадаєва, 1", "title":"ТВО №220 ВД №56", "lat":50.436092, "lng":30.371803999999997},
{"address":"Київ, Святошинський р-н, вул. Жмеринська, 20", "title":"ТВО №220 ВД №57", "lat":50.436625, "lng":30.375323999999978},
{"address":"Київ, Святошинський р-н, вул. Якуба Коласа, 15-Б", "title":"ТВО №220 ВД №58", "lat":50.436229, "lng":30.377954199999976},
{"address":"Київ, Святошинський р-н, вул. Жмеринська, 34", "title":"ТВО №220 ВД №59", "lat":50.43968599999999, "lng":30.38132399999995},
{"address":"Київ, Святошинський р-н, вул. Жмеринська, 34", "title":"ТВО №220 ВД №60", "lat":50.43968599999999, "lng":30.38132399999995},
{"address":"Київ, Святошинський р-н, вул. Жмеринська, 34", "title":"ТВО №220 ВД №61", "lat":50.43968599999999, "lng":30.38132399999995},
{"address":"Київ, Святошинський р-н, вул. Львівська, 6/3", "title":"ТВО №220 ВД №62", "lat":50.455737, "lng":30.380476000000044},
{"address":"Київ, Святошинський р-н, вул. Михайла Котельникова, 25", "title":"ТВО №220 ВД №63", "lat":50.45168, "lng":30.380742000000055},
{"address":"Київ, Святошинський р-н, вул. Львівська, 2/4", "title":"ТВО №220 ВД №64", "lat":50.45559, "lng":30.38181600000007},
{"address":"Київ, Святошинський р-н, вул. Львівська, 6/3", "title":"ТВО №220 ВД №65", "lat":50.455737, "lng":30.380476000000044},
{"address":"Київ, Святошинський р-н, вул. Львівська, 25", "title":"ТВО №220 ВД №66", "lat":50.453064, "lng":30.365156999999954},
{"address":"Київ, Святошинський р-н, вул. Відпочинку, 11", "title":"ТВО №220 ВД №67", "lat":50.450383, "lng":30.378299999999967},
{"address":"Київ, Святошинський р-н, вул. Львівська, 47/8", "title":"ТВО №220 ВД №68", "lat":50.452929, "lng":30.356408999999985},
{"address":"Київ, Святошинський р-н, вул. Львівська, 47/8", "title":"ТВО №220 ВД №69", "lat":50.452929, "lng":30.356408999999985},
{"address":"Київ, Святошинський р-н, вул. Бударіна, 3", "title":"ТВО №220 ВД №70", "lat":50.4517073, "lng":30.31040269999994},
{"address":"Київ, Святошинський р-н, п-т Перемоги, 63", "title":"ТВО №220 ВД №71", "lat":50.458203, "lng":30.412851000000046},
{"address":"Київ, Святошинський р-н, вул. Кулібіна, 11", "title":"ТВО №220 ВД №72", "lat":50.4548571, "lng":30.40050569999994},
{"address":"Київ, Святошинський р-н, вул. Чистяківська, 18", "title":"ТВО №220 ВД №73", "lat":50.453239, "lng":30.396172999999976},
{"address":"Київ, Святошинський р-н, вул. Генерала Наумова, 35-А", "title":"ТВО №220 ВД №74", "lat":50.469798, "lng":30.332441000000017},
{"address":"Київ, Святошинський р-н, вул. Генерала Наумова, 35-А", "title":"ТВО №220 ВД №75", "lat":50.469798, "lng":30.332441000000017},
{"address":"Київ, Святошинський р-н, вул. Генерала Наумова, 35-А", "title":"ТВО №220 ВД №76", "lat":50.469798, "lng":30.332441000000017},
{"address":"Київ, Святошинський р-н, вул. Генерала Наумова, 35-Б", "title":"ТВО №220 ВД №77", "lat":50.470454, "lng":30.331266000000028},
{"address":"Київ, Святошинський р-н, вул. Генерала Наумова, 35-Б", "title":"ТВО №220 ВД №78", "lat":50.470454, "lng":30.331266000000028},
{"address":"Київ, Святошинський р-н, вул. Генерала Наумова, 35-Б", "title":"ТВО №220 ВД №79", "lat":50.470454, "lng":30.331266000000028},
{"address":"Київ, Святошинський р-н, вул. Осіння, 35", "title":"ТВО №220 ВД №80", "lat":50.466355, "lng":30.34683700000005},
{"address":"Київ, Святошинський р-н, вул. Осіння, 35", "title":"ТВО №220 ВД №81", "lat":50.466355, "lng":30.34683700000005},
{"address":"Київ, Святошинський р-н, вул. Прилужна, 6", "title":"ТВО №220 ВД №82", "lat":50.46020799999999, "lng":30.34335199999998},
{"address":"Київ, Святошинський р-н, вул. Уборевича, 21-А", "title":"ТВО №220 ВД №83", "lat":50.46155, "lng":30.341985000000022},
{"address":"Київ, Святошинський р-н, вул. Уборевича, 21-А", "title":"ТВО №220 ВД №84", "lat":50.46155, "lng":30.341985000000022},
{"address":"Київ, Святошинський р-н, вул. Ірпінська, 68-А", "title":"ТВО №220 ВД №85", "lat":50.461665, "lng":30.350987000000032},
{"address":"Київ, Святошинський р-н, вул. Ірпінська, 68-А", "title":"ТВО №220 ВД №86", "lat":50.461665, "lng":30.350987000000032},
{"address":"Київ, Святошинський р-н, вул. Клавдієвська, 22", "title":"ТВО №220 ВД №87", "lat":50.478699, "lng":30.346252999999933},
{"address":"Київ, Святошинський р-н, вул. Клавдієвська, 24", "title":"ТВО №220 ВД №88", "lat":50.478699, "lng":30.348064000000022},
{"address":"Київ, Святошинський р-н, вул. Ірпінська, 71", "title":"ТВО №220 ВД №89", "lat":50.459248, "lng":30.348956999999928},
{"address":"Київ, Святошинський р-н, вул. Ірпінська, 71", "title":"ТВО №220 ВД №90", "lat":50.459248, "lng":30.348956999999928},
{"address":"Київ, Святошинський р-н, вул. М. Ушакова, 12-А", "title":"ТВО №220 ВД №91", "lat":50.458428, "lng":30.340862000000016},
{"address":"Київ, Святошинський р-н, вул. М. Ушакова, 12-А", "title":"ТВО №220 ВД №92", "lat":50.458428, "lng":30.340862000000016},
{"address":"Київ, Святошинський р-н, вул. Чорнобильська, 10-Б", "title":"ТВО №220 ВД №93", "lat":50.458099, "lng":30.351031000000035},
{"address":"Київ, Святошинський р-н, вул. Чорнобильська, 10-Б", "title":"ТВО №220 ВД №94", "lat":50.458099, "lng":30.351031000000035},
{"address":"Київ, Святошинський р-н, вул. Семашка, 9", "title":"ТВО №220 ВД №95", "lat":50.46272200000001, "lng":30.36151300000006},
{"address":"Київ, Святошинський р-н, вул. Семашка, 9", "title":"ТВО №220 ВД №96", "lat":50.46272200000001, "lng":30.36151300000006},
{"address":"Київ, Святошинський р-н, вул. В. Стуса, 25", "title":"ТВО №220 ВД №97", "lat":50.45957, "lng":30.36235899999997},
{"address":"Київ, Святошинський р-н, б-р Академіка Вернадського, 36", "title":"ТВО №220 ВД №98", "lat":50.466462, "lng":30.362844999999993},
{"address":"Київ, Святошинський р-н, б-р Академіка Вернадського, 32", "title":"ТВО №220 ВД №99", "lat":50.465685, "lng":30.368877999999995},
{"address":"Київ, Святошинський р-н, вул. Ф. Пушиної, 4", "title":"ТВО №220 ВД №100", "lat":50.45889099999999, "lng":30.368186000000037},
{"address":"Київ, Святошинський р-н, п-т Перемоги, 112", "title":"ТВО №220 ВД №101", "lat":50.45792, "lng":30.38100399999996},
{"address":"Київ, Святошинський р-н, б-р Академіка Вернадського, 16-В", "title":"ТВО №220 ВД №102", "lat":50.461309, "lng":30.379155999999966},
{"address":"Київ, Святошинський р-н, вул. Серпова, 20/6", "title":"ТВО №220 ВД №103", "lat":50.461414, "lng":30.37136399999997},
{"address":"Київ, Святошинський р-н, вул. Огарьова, 2", "title":"ТВО №220 ВД №104", "lat":50.462059, "lng":30.380912999999964},
{"address":"Київ, Святошинський р-н, вул. Огарьова, 2", "title":"ТВО №220 ВД №105", "lat":50.462059, "lng":30.380912999999964},
{"address":"Київ, Святошинський р-н, вул. Академіка Туполєва, 17", "title":"ТВО №220 ВД №106", "lat":50.481963, "lng":30.39160800000002},
{"address":"Київ, Святошинський р-н, вул. Академіка Туполєва, 17", "title":"ТВО №220 ВД №107", "lat":50.481963, "lng":30.39160800000002},
{"address":"Київ, Святошинський р-н, вул. Академіка Туполєва, 17", "title":"ТВО №220 ВД №108", "lat":50.481963, "lng":30.39160800000002},
{"address":"Київ, Святошинський р-н, вул. Берковецька, 6", "title":"ТВО №220 ВД №109", "lat":50.500221, "lng":30.36194599999999},
{"address":"Київ,  вул. Крамського, 16", "title":"ТВО №220 ВД №110", "lat":50.449896, "lng":30.371777000000066},
{"address":"Київ, вул. Клінічна, 25", "title":"ТВО №221 ВД №1", "lat":50.41900099999999, "lng":30.49183400000004},
{"address":"Київ, вул. Клінічна, 25", "title":"ТВО №221 ВД №2", "lat":50.41900099999999, "lng":30.49183400000004},
{"address":"Київ, вул. Монтажників, 97", "title":"ТВО №221 ВД №3", "lat":50.412217, "lng":30.498509000000013},
{"address":"Київ, вул. Каменярів, 32", "title":"ТВО №221 ВД №4", "lat":50.404354, "lng":30.486136999999985},
{"address":"Київ, вул. Головка, 25.", "title":"ТВО №221 ВД №5", "lat":50.41883199999999, "lng":30.480286999999976},
{"address":"Київ, Червонозоряний проспект, 51", "title":"ТВО №221 ВД №6", "lat":50.419863, "lng":30.475630000000024},
{"address":"Київ, вул.І.Клименка, 17.", "title":"ТВО №221 ВД №7", "lat":50.4501, "lng":30.523400000000038},
{"address":"Київ, вул.Клименка, 25", "title":"ТВО №221 ВД №8", "lat":50.421926, "lng":30.477127999999993},
{"address":"Київ, вул.Солом’янська, 13.", "title":"ТВО №221 ВД №9", "lat":50.425525, "lng":30.477800000000002},
{"address":"Київ, Червонозоряний проспект, 6.", "title":"ТВО №221 ВД №10", "lat":50.421976, "lng":30.46644500000002},
{"address":"Київ, вул.Освіти, 5.", "title":"ТВО №221 ВД №11", "lat":50.4501, "lng":30.523400000000038},
{"address":"Київ, вул.Клименка, 17.", "title":"ТВО №221 ВД №12", "lat":50.424356, "lng":30.474398000000065},
{"address":"Київ, вул. М. Кривоноса, 21", "title":"ТВО №221 ВД №13", "lat":50.42381, "lng":30.470393999999942},
{"address":"Київ, вул.Клименка, 5/2.", "title":"ТВО №221 ВД №14", "lat":50.425957, "lng":30.471456999999987},
{"address":"Київ, Повітрофлотський проспект, 31", "title":"ТВО №221 ВД №15", "lat":50.426906, "lng":30.465179000000035},
{"address":"Київ, Повітрофлотський проспект, 35.", "title":"ТВО №221 ВД №16", "lat":50.426266, "lng":30.46245799999997},
{"address":"Київ, Повітрофлотський проспект, 39/1.", "title":"ТВО №221 ВД №17", "lat":50.425562, "lng":30.46063300000003},
{"address":"Київ, вул.Мартиросяна,5.", "title":"ТВО №221 ВД №18", "lat":50.42709199999999, "lng":30.455602},
{"address":"Київ, вул.Донецька, 25.", "title":"ТВО №221 ВД №19", "lat":50.426141, "lng":30.453002999999967},
{"address":"Київ, вул.Новгородська,5.", "title":"ТВО №221 ВД №20", "lat":50.426211, "lng":30.446773000000007},
{"address":"Київ, вул.Смілянська, 11.", "title":"ТВО №221 ВД №21", "lat":50.423303, "lng":30.44877299999996},
{"address":"Київ, вул.Вінницька, 10.", "title":"ТВО №221 ВД №22", "lat":50.41836000000001, "lng":30.45406300000002},
{"address":"Київ, вул.Донецька, 30", "title":"ТВО №221 ВД №23", "lat":50.42894099999999, "lng":30.44893000000002},
{"address":"Київ, вул.Ушинського, 32.", "title":"ТВО №221 ВД №24", "lat":50.426914, "lng":30.44322999999997},
{"address":"Київ, вул.Волинська, 4-а.", "title":"ТВО №221 ВД №25", "lat":50.433741, "lng":30.45196199999998},
{"address":"Київ, вул.Волинська, 12.", "title":"ТВО №221 ВД №26", "lat":50.429243, "lng":30.449739000000022},
{"address":"Київ, Чоколівський, 25.", "title":"ТВО №221 ВД №27", "lat":50.4344246, "lng":30.453721200000018},
{"address":"Київ, вул.Волинська, 2.", "title":"ТВО №221 ВД №28", "lat":50.433841, "lng":30.45324400000004},
{"address":"Київ, Чоколівський бульвар, 13.", "title":"ТВО №221 ВД №29", "lat":50.429654, "lng":30.45580199999995},
{"address":"Київ, вул.Єреванська, 3а.", "title":"ТВО №221 ВД №30", "lat":50.433018, "lng":30.455715000000055},
{"address":"Київ, вул.Петровського, 1.", "title":"ТВО №221 ВД №31", "lat":50.436105, "lng":30.45426199999997},
{"address":"Київ, вул.Петровського, 1", "title":"ТВО №221 ВД №32", "lat":50.436105, "lng":30.45426199999997},
{"address":"Київ, вул.Єреванська, 12а.", "title":"ТВО №221 ВД №33", "lat":50.434939, "lng":30.460039999999935},
{"address":"Київ, вул.Уманська, 33.", "title":"ТВО №221 ВД №34", "lat":50.439947, "lng":30.460361000000034},
{"address":"Київ, вул.Єреванська, 20.", "title":"ТВО №221 ВД №35", "lat":50.436941, "lng":30.462410999999975},
{"address":"Київ, вул.Курська, 12.", "title":"ТВО №221 ВД №36", "lat":50.438212, "lng":30.46957999999995},
{"address":"Київ, Повітрофлотський проспект, 22.", "title":"ТВО №221 ВД №37", "lat":50.436752, "lng":30.473299999999995},
{"address":"Київ, вул.Курська, 15.", "title":"ТВО №221 ВД №38", "lat":50.43729399999999, "lng":30.466814999999997},
{"address":"Київ, вул.Леніна, 60.", "title":"ТВО №221 ВД №39", "lat":50.521381, "lng":30.58654100000001},
{"address":"Київ, вул.Героїв війни, 14", "title":"ТВО №221 ВД №40", "lat":50.3930683, "lng":30.44297819999997},
{"address":"Київ, вул.І.Пулюя, 3-б.", "title":"ТВО №221 ВД №41", "lat":50.4501, "lng":30.523400000000038},
{"address":"Київ, вул.І.Пулюя, 3-б.", "title":"ТВО №221 ВД №42", "lat":50.4501, "lng":30.523400000000038},
{"address":"Київ, вул.Антонова, 3.", "title":"ТВО №221 ВД №43", "lat":50.428921, "lng":30.464878999999996},
{"address":"Київ, Платонівський провулок № 3.", "title":"ТВО №221 ВД №44", "lat":50.436629, "lng":30.484553000000005},
{"address":"Київ, вул.Курська, 6.", "title":"ТВО №221 ВД №45", "lat":50.436066, "lng":30.470205999999962},
{"address":"Київ, вул.Волгоградська, 1.", "title":"ТВО №221 ВД №46", "lat":50.428278, "lng":30.495096999999987},
{"address":"Київ, вул.Грінченка, 2.", "title":"ТВО №221 ВД №47", "lat":50.425776, "lng":30.504778999999985},
{"address":"Київ, вул.Кудряшова, 12/14.", "title":"ТВО №221 ВД №48", "lat":50.43253, "lng":30.487486999999987},
{"address":"Київ, вул.Волгоградська, 1.", "title":"ТВО №221 ВД №49", "lat":50.428278, "lng":30.495096999999987},
{"address":"Київ, вул.Волгоградська, 23.", "title":"ТВО №221 ВД №50", "lat":50.423454, "lng":30.49180899999999},
{"address":"Київ, вул.Волгоградська, 23.", "title":"ТВО №221 ВД №51", "lat":50.423454, "lng":30.49180899999999},
{"address":"Київ, вул.Солом’янська, 33.", "title":"ТВО №221 ВД №52", "lat":50.421163, "lng":30.489029999999957},
{"address":"Київ, вул.Стадіонна, 2/10.", "title":"ТВО №221 ВД №53", "lat":50.39297200000001, "lng":30.447140999999988},
{"address":"Київ, вул.Лукашевича, 19.", "title":"ТВО №221 ВД №54", "lat":50.44084300000001, "lng":30.482279000000062},
{"address":"Київ, Повітрофлотський проспект, 9.", "title":"ТВО №221 ВД №55", "lat":50.440523, "lng":30.479855000000043},
{"address":"Київ, вул.Фурманова, 1/5.", "title":"ТВО №221 ВД №56", "lat":50.438137, "lng":30.483374000000026},
{"address":"Київ, вул.Кудряшова, 12/14.", "title":"ТВО №221 ВД №57", "lat":50.43253, "lng":30.487486999999987},
{"address":"Київ, Платонівський провулок, 3.", "title":"ТВО №221 ВД №58", "lat":50.436629, "lng":30.484553000000005},
{"address":"Київ, вул. Урицького, 35", "title":"ТВО №221 ВД №59", "lat":50.432015, "lng":30.476219000000015},
{"address":"Київ, вул.Кавказька, 10.", "title":"ТВО №221 ВД №60", "lat":50.431843, "lng":30.479022999999984},
{"address":"Київ, вул.Урицького, 36.", "title":"ТВО №221 ВД №61", "lat":50.432676, "lng":30.476230999999984},
{"address":"Київ, вул.Вінницька, 10.", "title":"ТВО №221 ВД №62", "lat":50.41836000000001, "lng":30.45406300000002},
{"address":"Київ, вулиця Борщагівська,126.", "title":"ТВО №221 ВД №63", "lat":50.447019, "lng":30.456634000000008},
{"address":"Київ, вулиця Борщагівська,126.", "title":"ТВО №221 ВД №64", "lat":50.447019, "lng":30.456634000000008},
{"address":"Київ, вулиця Борщагівська, 146", "title":"ТВО №221 ВД №65", "lat":50.44626, "lng":30.449235999999928},
{"address":"Київ, вулиця Політехнічна,6", "title":"ТВО №221 ВД №66", "lat":50.449064, "lng":30.465277000000015},
{"address":"Київ, вулиця Борщагівська,144", "title":"ТВО №221 ВД №67", "lat":50.446678, "lng":30.450874},
{"address":"Київ, провулок Польовий, 10.", "title":"ТВО №221 ВД №68", "lat":50.452729, "lng":30.448969000000034},
{"address":"Київ, вул. Металістів, 17", "title":"ТВО №221 ВД №69", "lat":50.44929, "lng":30.445549000000028},
{"address":"Київ, вул. Солом'янська, 4", "title":"ТВО №221 ВД №70", "lat":50.427711, "lng":30.474908000000028},
{"address":"Київ, вул. Виборзька,57", "title":"ТВО №221 ВД №71", "lat":50.448364, "lng":30.438526000000024},
{"address":"Київ, вул. Шутова,13", "title":"ТВО №221 ВД №72", "lat":50.45050500000001, "lng":30.427734999999984},
{"address":"Київ, вул. Виборзька,82", "title":"ТВО №221 ВД №73", "lat":50.45084199999999, "lng":30.432522000000063},
{"address":"Київ, вул. Гарматна, 10", "title":"ТВО №221 ВД №74", "lat":50.450301, "lng":30.43306000000007},
{"address":"Київ, вул.Шутова, 14-а", "title":"ТВО №221 ВД №75", "lat":50.45055929999999, "lng":30.427348400000028},
{"address":"Київ, вул. Виборзька, 57", "title":"ТВО №221 ВД №76", "lat":50.448364, "lng":30.438526000000024},
{"address":"Київ, вул. Виборзька, 57", "title":"ТВО №221 ВД №77", "lat":50.448364, "lng":30.438526000000024},
{"address":"Київ, вул. Гарматна, 26", "title":"ТВО №221 ВД №78", "lat":50.447224, "lng":30.431466999999998},
{"address":"Київ, вул. Василенка, 10", "title":"ТВО №221 ВД №79", "lat":50.44282, "lng":30.42170699999997},
{"address":"Київ, вул. Василенка, 10", "title":"ТВО №221 ВД №80", "lat":50.44282, "lng":30.42170699999997},
{"address":"Київ, вул. Василенка, 15", "title":"ТВО №221 ВД №81", "lat":50.443745, "lng":30.423295999999937},
{"address":"Київ, вул. Василенка, 15", "title":"ТВО №221 ВД №82", "lat":50.443745, "lng":30.423295999999937},
{"address":"Київ, вул. Василенка, 15", "title":"ТВО №221 ВД №83", "lat":50.443745, "lng":30.423295999999937},
{"address":"Київ, вул. Героїв Севастополя, 9-а", "title":"ТВО №221 ВД №84", "lat":50.442462, "lng":30.418618000000038},
{"address":"Київ, вул. Героїв Севастополя, 9-а", "title":"ТВО №221 ВД №85", "lat":50.442462, "lng":30.418618000000038},
{"address":"Київ, вул. Героїв Севастополя, 9-а", "title":"ТВО №221 ВД №86", "lat":50.442462, "lng":30.418618000000038},
{"address":"Київ, Проспект Комарова, 32", "title":"ТВО №221 ВД №87", "lat":50.437852, "lng":30.415236999999934},
{"address":"Київ, вул. Метробудівська, 5-а", "title":"ТВО №221 ВД №88", "lat":50.442439, "lng":30.412288999999987},
{"address":"Київ, вул. Метробудівська, 5-а", "title":"ТВО №221 ВД №89", "lat":50.442439, "lng":30.412288999999987},
{"address":"Київ, вул. Академіка Каблукова,14", "title":"ТВО №221 ВД №90", "lat":50.43912, "lng":30.41110900000001},
{"address":"Київ, вул.Академіка Каблукова, 14", "title":"ТВО №221 ВД №91", "lat":50.43912, "lng":30.41110900000001},
{"address":"Київ, вул. Білецького, 12", "title":"ТВО №221 ВД №92", "lat":50.431386, "lng":30.418650999999954},
{"address":"Київ, вул. Білецького, 7", "title":"ТВО №221 ВД №93", "lat":50.430348, "lng":30.419534},
{"address":"Київ, вул. Білецького, 7", "title":"ТВО №221 ВД №94", "lat":50.430348, "lng":30.419534},
{"address":"Київ, вул. М. Донця,16", "title":"ТВО №221 ВД №95", "lat":50.427451, "lng":30.42426999999998},
{"address":"Київ, вул. М. Донця, 16", "title":"ТВО №221 ВД №96", "lat":50.427451, "lng":30.42426999999998},
{"address":"Київ, вул. Героїв Севастополя, 43", "title":"ТВО №221 ВД №97", "lat":50.429869, "lng":30.42899399999999},
{"address":"Київ, вул. Героїв Севастополя, 43", "title":"ТВО №221 ВД №98", "lat":50.429869, "lng":30.42899399999999},
{"address":"Київ, Проспект Відрадний, 20", "title":"ТВО №221 ВД №99", "lat":50.42628699999999, "lng":30.427975999999944},
{"address":"Київ, вул. Відрадний,20", "title":"ТВО №221 ВД №100", "lat":50.42628699999999, "lng":30.427975999999944},
{"address":"Київ, бульвар Лепсе, 46", "title":"ТВО №221 ВД №101", "lat":50.423911, "lng":30.421235000000024},
{"address":"Київ, бульвар Лепсе, 46", "title":"ТВО №221 ВД №102", "lat":50.423911, "lng":30.421235000000024},
{"address":"Київ, проспект Відрадний, 103", "title":"ТВО №221 ВД №103", "lat":50.41454299999999, "lng":30.42420500000003},
{"address":"Київ, вул. Ново-Польова, 95", "title":"ТВО №221 ВД №104", "lat":50.417965, "lng":30.433686999999964},
{"address":"Київ, вул. М. Шепелева, 3", "title":"ТВО №221 ВД №105", "lat":50.421313, "lng":30.42897800000003},
{"address":"Київ, вул. М. Шепелева, 3", "title":"ТВО №221 ВД №106", "lat":50.421313, "lng":30.42897800000003},
{"address":"Київ, вул. Зелена, 12", "title":"ТВО №221 ВД №107", "lat":50.425738, "lng":30.436206999999968},
{"address":"Київ, вул. Ніжинська, 29-д", "title":"ТВО №221 ВД №108", "lat":50.439152, "lng":30.436016600000016},
{"address":"Київ, вул. Комарова,1", "title":"ТВО №221 ВД №109", "lat":50.545347, "lng":30.243741},
{"address":"Київ, вул. Ярослава Галана, 2", "title":"ТВО №221 ВД №110", "lat":50.434846, "lng":30.44382500000006},
{"address":"Київ, вул. Генерала Тупікова, 29", "title":"ТВО №221 ВД №111", "lat":50.44083999999999, "lng":30.442033000000038},
{"address":"Київ, вул. Генерала Тупікова, 22", "title":"ТВО №221 ВД №112", "lat":50.441161, "lng":30.439303999999993},
{"address":"Київ, вул. Генерала Тупікова, 22", "title":"ТВО №221 ВД №113", "lat":50.441161, "lng":30.439303999999993},
{"address":"Київ, пр.Комарова,1", "title":"ТВО №221 ВД №114", "lat":50.440525, "lng":30.430560000000014},
{"address":"Київ,пр.Комарова,1", "title":"ТВО №221 ВД №115", "lat":50.440525, "lng":30.430560000000014},
{"address":"Київ, пр.Комарова,1", "title":"ТВО №221 ВД №116", "lat":50.440525, "lng":30.430560000000014},
{"address":"Київ, вул. Борщагівська, 115", "title":"ТВО №221 ВД №117", "lat":50.44606, "lng":30.453790000000026},
{"address":"Київ, просп. Комарова, 3", "title":"ТВО №221 ВД №118", "lat":50.435932, "lng":30.412523999999962},
{"address":"Київ, вул. М.Амосова, 10", "title":"ТВО №221 ВД №119", "lat":50.420797, "lng":30.50190900000007},
{"address":"Київ, вул. М.Амосова, 6", "title":"ТВО №221 ВД №120", "lat":50.423404, "lng":30.504493000000025},
{"address":"Київ, вул. Солом’янська, 17", "title":"ТВО №221 ВД №121", "lat":50.42425100000001, "lng":30.48234100000002},
{"address":"Київ, пр-т Червонозоряний, 2", "title":"ТВО №221 ВД №122", "lat":50.424155, "lng":30.461385999999948},
{"address":"Київ, вул. Народного Ополчення, 5", "title":"ТВО №221 ВД №123", "lat":50.421057, "lng":30.458229999999958},
{"address":"Київ, пр-т Повітрофлотський, 9", "title":"ТВО №221 ВД №124", "lat":50.440523, "lng":30.479855000000043},
{"address":"Київ, вул. Здолбунівська, 7б", "title":"ТВО №222 ВД №1", "lat":50.413317, "lng":30.617664999999988},
{"address":"Київ, вул. Здолбунівська, 7б", "title":"ТВО №222 ВД №2", "lat":50.413317, "lng":30.617664999999988},
{"address":"Київ, вул. Княжий Затон,17 в", "title":"ТВО №222 ВД №3", "lat":50.40081300000001, "lng":30.62197900000001},
{"address":"Київ, вул. Княжий Затон, 17в.", "title":"ТВО №222 ВД №4", "lat":50.40081300000001, "lng":30.62197900000001},
{"address":"Київ,  вул. Княжий Затон, 17в.", "title":"ТВО №222 ВД №5", "lat":50.40081300000001, "lng":30.62197900000001},
{"address":"Київ, вул. Княжий Затон, 17в", "title":"ТВО №222 ВД №6", "lat":50.40081300000001, "lng":30.62197900000001},
{"address":"Київ,  вул. Княжий Затон, 7а.", "title":"ТВО №222 ВД №7", "lat":50.401027, "lng":30.626364999999964},
{"address":"Київ, вул. Княжий Затон, 7а.", "title":"ТВО №222 ВД №8", "lat":50.401027, "lng":30.626364999999964},
{"address":"Київ, вул. Княжий Затон, 7а.", "title":"ТВО №222 ВД №9", "lat":50.401027, "lng":30.626364999999964},
{"address":"Київ, вул. Княжий Затон, 7а.", "title":"ТВО №222 ВД №10", "lat":50.401027, "lng":30.626364999999964},
{"address":"Київ,  вул. Гмирі 3-б", "title":"ТВО №222 ВД №11", "lat":50.39356, "lng":30.632105000000024},
{"address":"Київ,  вул. Гмирі 3-б", "title":"ТВО №222 ВД №12", "lat":50.39356, "lng":30.632105000000024},
{"address":"Київ, вул. Гмирі 3-б", "title":"ТВО №222 ВД №13", "lat":50.39356, "lng":30.632105000000024},
{"address":"Київ, вул. Мішуги, 5.", "title":"ТВО №222 ВД №14", "lat":50.4501, "lng":30.523400000000038},
{"address":"Київ, вул. Мішуги, 5.", "title":"ТВО №222 ВД №15", "lat":50.4501, "lng":30.523400000000038},
{"address":"Київ, вул. Мішуги, 5.", "title":"ТВО №222 ВД №16", "lat":50.4501, "lng":30.523400000000038},
{"address":"Київ, вул. Мішуги, 5.", "title":"ТВО №222 ВД №17", "lat":50.4501, "lng":30.523400000000038},
{"address":"Київ, просп. Бажана, 32а.", "title":"ТВО №222 ВД №18", "lat":50.397209, "lng":30.64870700000006},
{"address":"Київ, просп. Бажана, 32а.", "title":"ТВО №222 ВД №19", "lat":50.397209, "lng":30.64870700000006},
{"address":"Київ, просп. Бажана, 32а.", "title":"ТВО №222 ВД №20", "lat":50.397209, "lng":30.64870700000006},
{"address":"Київ, просп. Бажана, 32а.", "title":"ТВО №222 ВД №21", "lat":50.397209, "lng":30.64870700000006},
{"address":"Київ, просп. Бажана, 32а.", "title":"ТВО №222 ВД №22", "lat":50.397209, "lng":30.64870700000006},
{"address":"Київ, вул. Драгоманова, 27а.", "title":"ТВО №222 ВД №23", "lat":50.402188, "lng":30.63838499999997},
{"address":"Київ, вул. Драгоманова, 27а.", "title":"ТВО №222 ВД №24", "lat":50.402188, "lng":30.63838499999997},
{"address":"Київ, просп. Григоренка, 21в.", "title":"ТВО №222 ВД №25", "lat":50.406518, "lng":30.635545999999977},
{"address":"Київ, просп. Григоренка, 21в.", "title":"ТВО №222 ВД №26", "lat":50.406518, "lng":30.635545999999977},
{"address":"Київ, просп. Григоренка, 21в.", "title":"ТВО №222 ВД №27", "lat":50.406518, "lng":30.635545999999977},
{"address":"Київ, просп. Григоренка, 21в.", "title":"ТВО №222 ВД №28", "lat":50.406518, "lng":30.635545999999977},
{"address":"Київ, просп. Григоренка, 21в.", "title":"ТВО №222 ВД №29", "lat":50.406518, "lng":30.635545999999977},
{"address":"Київ, вул. Драгоманова 10-в", "title":"ТВО №222 ВД №30", "lat":50.413107, "lng":30.632000000000062},
{"address":"Київ, вул. Драгоманова 10-в", "title":"ТВО №222 ВД №31", "lat":50.413107, "lng":30.632000000000062},
{"address":"Київ, вул. Драгоманова 10-в", "title":"ТВО №222 ВД №32", "lat":50.413107, "lng":30.632000000000062},
{"address":"Київ, вул.  Драгоманова, 9а", "title":"ТВО №222 ВД №33", "lat":50.414085, "lng":30.639885999999933},
{"address":"Київ, вул Драгоманова, 9а", "title":"ТВО №222 ВД №34", "lat":50.414085, "lng":30.639885999999933},
{"address":"Київ, вул Драгоманова, 9а", "title":"ТВО №222 ВД №35", "lat":50.414085, "lng":30.639885999999933},
{"address":"Київ, вул. Кошиця, 8", "title":"ТВО №222 ВД №36", "lat":50.407146, "lng":30.642630000000054},
{"address":"Київ, вул. Олійника, 10", "title":"ТВО №222 ВД №37", "lat":50.40926200000001, "lng":30.642336999999998},
{"address":"Київ, вул. Кошиця, 8", "title":"ТВО №222 ВД №38", "lat":50.407146, "lng":30.642630000000054},
{"address":"Київ, вул. Кошиця, 8", "title":"ТВО №222 ВД №39", "lat":50.407146, "lng":30.642630000000054},
{"address":"Київ, вул. Кошиця, 6", "title":"ТВО №222 ВД №40", "lat":50.406583, "lng":30.645246000000043},
{"address":"Київ, вул. Кошиця, 6", "title":"ТВО №222 ВД №41", "lat":50.406583, "lng":30.645246000000043},
{"address":"Київ, вул. Вербицького, 4б", "title":"ТВО №222 ВД №42", "lat":50.413287, "lng":30.649022999999943},
{"address":"Київ, вул. Вербицького, 14г", "title":"ТВО №222 ВД №43", "lat":50.408683, "lng":30.65089499999999},
{"address":"Київ, вул. Вербицького, 14г", "title":"ТВО №222 ВД №44", "lat":50.408683, "lng":30.65089499999999},
{"address":"Київ, вул. Вербицького, 14г", "title":"ТВО №222 ВД №45", "lat":50.408683, "lng":30.65089499999999},
{"address":"Київ, вул Декабристів, 8а", "title":"ТВО №222 ВД №46", "lat":50.405871, "lng":30.652557},
{"address":"Київ, вул Декабристів, 8а", "title":"ТВО №222 ВД №47", "lat":50.405871, "lng":30.652557},
{"address":"Київ, вул. Вербицького, 26в", "title":"ТВО №222 ВД №48", "lat":50.405984, "lng":30.660586999999964},
{"address":"Київ, вул. Вербицького, 26в", "title":"ТВО №222 ВД №49", "lat":50.405984, "lng":30.660586999999964},
{"address":"Київ, вул. Вербицького, 26в", "title":"ТВО №222 ВД №50", "lat":50.405984, "lng":30.660586999999964},
{"address":"Київ, вул. Вербицького, 28г", "title":"ТВО №222 ВД №51", "lat":50.406084, "lng":30.66292599999997},
{"address":"Київ, вул. Вербицького, 28г", "title":"ТВО №222 ВД №52", "lat":50.406084, "lng":30.66292599999997},
{"address":"Київ, вул. Вербицького, 28г", "title":"ТВО №222 ВД №53", "lat":50.406084, "lng":30.66292599999997},
{"address":"Київ, вул. Горлівська, 220", "title":"ТВО №222 ВД №54", "lat":50.404853, "lng":30.67319599999996},
{"address":"Київ, вул. Вербицького, 28г", "title":"ТВО №222 ВД №55", "lat":50.406084, "lng":30.66292599999997},
{"address":"Київ, вул. Вербицького, 7", "title":"ТВО №222 ВД №56", "lat":50.409761, "lng":30.659554999999955},
{"address":"Київ, вул. Вербицького, 7", "title":"ТВО №222 ВД №57", "lat":50.409761, "lng":30.659554999999955},
{"address":"Київ, вул. Вербицького, 7", "title":"ТВО №222 ВД №58", "lat":50.409761, "lng":30.659554999999955},
{"address":"Київ, вул. Вербицького, 7", "title":"ТВО №222 ВД №59", "lat":50.409761, "lng":30.659554999999955},
{"address":"Київ, вул. Вербицького, 7а", "title":"ТВО №222 ВД №60", "lat":50.411133, "lng":30.65761699999996},
{"address":"Київ, вул. Вербицького, 7а", "title":"ТВО №222 ВД №61", "lat":50.411133, "lng":30.65761699999996},
{"address":"Київ, Харківське шосе, 168 і", "title":"ТВО №222 ВД №62", "lat":50.414198, "lng":30.661778000000027},
{"address":"Київ, вул. Вербицького, 7а", "title":"ТВО №222 ВД №63", "lat":50.411133, "lng":30.65761699999996},
{"address":"Київ, Харківське шосе, 168 і", "title":"ТВО №222 ВД №64", "lat":50.414198, "lng":30.661778000000027},
{"address":"Київ, Харківське шосе, 168 і", "title":"ТВО №222 ВД №65", "lat":50.414198, "lng":30.661778000000027},
{"address":"Київ, Харківське шосе, 168 і", "title":"ТВО №222 ВД №66", "lat":50.414198, "lng":30.661778000000027},
{"address":"Київ, вул. Тростянецька, 7г", "title":"ТВО №222 ВД №67", "lat":50.419982, "lng":30.648938999999928},
{"address":"Київ, вул. Ревуцького, 13а", "title":"ТВО №222 ВД №68", "lat":50.418357, "lng":30.645631999999978},
{"address":"Київ, вул. Ревуцького, 13а", "title":"ТВО №222 ВД №69", "lat":50.418357, "lng":30.645631999999978},
{"address":"Київ, вул. Ревуцького, 13а", "title":"ТВО №222 ВД №70", "lat":50.418357, "lng":30.645631999999978},
{"address":"Київ, вул. Тростянецька, 7г", "title":"ТВО №222 ВД №71", "lat":50.419982, "lng":30.648938999999928},
{"address":"Київ, вул. Ревуцького, 13а", "title":"ТВО №222 ВД №72", "lat":50.418357, "lng":30.645631999999978},
{"address":"Київ, вул. Тростянецька, 7г", "title":"ТВО №222 ВД №73", "lat":50.419982, "lng":30.648938999999928},
{"address":"Київ, вул. Привокзальна 12/2", "title":"ТВО №222 ВД №74", "lat":50.429014, "lng":30.64253400000007},
{"address":"Київ, вул. Привокзальна 12/2", "title":"ТВО №222 ВД №75", "lat":50.429014, "lng":30.64253400000007},
{"address":"Київ, вул. Заслонова, 3", "title":"ТВО №222 ВД №76", "lat":50.49509, "lng":30.74669199999994},
{"address":"Київ, вул. Сімферопольська, 10", "title":"ТВО №222 ВД №77", "lat":50.42453099999999, "lng":30.647438999999963},
{"address":"Київ, вул. Сімферопольська, 10", "title":"ТВО №222 ВД №78", "lat":50.42453099999999, "lng":30.647438999999963},
{"address":"Київ, вул. Славгородська, 14", "title":"ТВО №222 ВД №79", "lat":50.418589, "lng":30.660988999999972},
{"address":"Київ, вул. Ялтинська, 13", "title":"ТВО №222 ВД №80", "lat":50.425283, "lng":30.655997999999954},
{"address":"Київ, вул. Ялтинська, 13", "title":"ТВО №222 ВД №81", "lat":50.425283, "lng":30.655997999999954},
{"address":"Київ, вул. Заслонова, 18", "title":"ТВО №222 ВД №82", "lat":50.427993, "lng":30.658392999999933},
{"address":"Київ, вул. Заслонова, 18", "title":"ТВО №222 ВД №83", "lat":50.427993, "lng":30.658392999999933},
{"address":"Київ, вул. Ялтинська, 13", "title":"ТВО №222 ВД №84", "lat":50.425283, "lng":30.655997999999954},
{"address":"Київ, вул. Тростянецька, 19", "title":"ТВО №222 ВД №85", "lat":50.422819, "lng":30.661018000000013},
{"address":"Київ, вул. Тростянецька, 19", "title":"ТВО №222 ВД №86", "lat":50.422819, "lng":30.661018000000013},
{"address":"Київ, вул. Бориспільська, 10", "title":"ТВО №222 ВД №87", "lat":50.427929, "lng":30.66718400000002},
{"address":"Київ, вул. Бориспільська, 10", "title":"ТВО №222 ВД №88", "lat":50.427929, "lng":30.66718400000002},
{"address":"Київ, вул. Російська, 45", "title":"ТВО №222 ВД №89", "lat":50.426271, "lng":30.666964000000007},
{"address":"Київ, вул. Російська, 45", "title":"ТВО №222 ВД №90", "lat":50.426271, "lng":30.666964000000007},
{"address":"Київ, вул. Зрошувальна, 5а", "title":"ТВО №222 ВД №91", "lat":50.432973, "lng":30.673648999999955},
{"address":"Київ, пров. Поліський, 9", "title":"ТВО №222 ВД №92", "lat":50.422282, "lng":30.684887000000003},
{"address":"Київ, пров. Поліський, 9", "title":"ТВО №222 ВД №93", "lat":50.422282, "lng":30.684887000000003},
{"address":"Київ, пров. Поліський, 9", "title":"ТВО №222 ВД №94", "lat":50.422282, "lng":30.684887000000003},
{"address":"Київ, пров. Поліський, 9", "title":"ТВО №222 ВД №95", "lat":50.422282, "lng":30.684887000000003},
{"address":"Київ, вул. Славгородська, 14", "title":"ТВО №222 ВД №96", "lat":50.418589, "lng":30.660988999999972},
{"address":"Київ, вул. Славгородська, 14", "title":"ТВО №222 ВД №97", "lat":50.418589, "lng":30.660988999999972},
{"address":"Київ, Харківське шосе,121", "title":"ТВО №222 ВД №98", "lat":50.413795, "lng":30.66577200000006},
{"address":"Київ, Харківське шосе,121", "title":"ТВО №222 ВД №99", "lat":50.413795, "lng":30.66577200000006},
{"address":"Київ, вул. Вакуленчука, 50а", "title":"ТВО №222 ВД №100", "lat":50.405549, "lng":30.683244999999943},
{"address":"Київ, вул. Леніна, 23б", "title":"ТВО №222 ВД №101", "lat":50.388983, "lng":30.694950000000063},
{"address":"Київ, вул. Леніна, 23б", "title":"ТВО №222 ВД №102", "lat":50.388983, "lng":30.694950000000063},
{"address":"Київ, вул. Леніна, 53", "title":"ТВО №222 ВД №103", "lat":50.383624, "lng":30.70095900000001},
{"address":"Київ, вул. Леніна, 53", "title":"ТВО №222 ВД №104", "lat":50.383624, "lng":30.70095900000001},
{"address":"Київ, вул. Леніна, 53", "title":"ТВО №222 ВД №105", "lat":50.383624, "lng":30.70095900000001},
{"address":"Київ, вул. Феодосіївська, 8/13", "title":"ТВО №222 ВД №106", "lat":50.401601, "lng":30.532817000000023},
{"address":"Київ, вул. В. Китаївська, 85", "title":"ТВО №222 ВД №107", "lat":50.39808499999999, "lng":30.532914000000005},
{"address":"Київ, проспект Науки, 29а", "title":"ТВО №222 ВД №108", "lat":50.395517, "lng":30.533971000000065},
{"address":"Київ, проспект Науки, 29а", "title":"ТВО №222 ВД №109", "lat":50.395517, "lng":30.533971000000065},
{"address":"Київ, вул. Набережно - Корчуватська, 94а", "title":"ТВО №222 ВД №110", "lat":50.362436, "lng":30.558842000000027},
{"address":"Київ, вул. Набережно - Корчуватська, 78", "title":"ТВО №222 ВД №111", "lat":50.366893, "lng":30.555158000000006},
{"address":"Київ, вул. Набережно - Корчуватська, 94а", "title":"ТВО №222 ВД №112", "lat":50.362436, "lng":30.558842000000027},
{"address":"Київ, вул. Ліснична, 3", "title":"ТВО №222 ВД №113", "lat":50.4501, "lng":30.523400000000038},
{"address":"Київ, вул. Матикіна генерала, 10", "title":"ТВО №222 ВД №114", "lat":50.30019, "lng":30.575530999999955},
{"address":"Київ, вул. Лебедєва, 31", "title":"ТВО №222 ВД №115", "lat":50.4384346, "lng":30.436767799999984},
{"address":"Київ, вул. Уральська, 10/2", "title":"ТВО №222 ВД №116", "lat":50.395379, "lng":30.522241000000008},
{"address":"Київ, проспект 40 річчя Жовтня, 59-б", "title":"ТВО №222 ВД №117", "lat":50.398909, "lng":30.51369299999999},
{"address":"Київ, вул. Голосіївська, 12", "title":"ТВО №222 ВД №118", "lat":50.401171, "lng":30.518699999999967},
{"address":"Київ, проспект Науки, 26", "title":"ТВО №222 ВД №119", "lat":50.397963, "lng":30.53002200000003},
{"address":"Київ, проспект Науки, 24", "title":"ТВО №222 ВД №120", "lat":50.399061, "lng":30.529240000000073},
{"address":"Київ, проспект Науки, 36", "title":"ТВО №222 ВД №121", "lat":50.393878, "lng":30.530756999999994},
{"address":"Київ, вул. Героїв оборони,6", "title":"ТВО №222 ВД №122", "lat":50.382955, "lng":30.48778100000004},
{"address":"Київ, вул. Родимцева генерала, 7б,", "title":"ТВО №222 ВД №123", "lat":50.38578200000001, "lng":30.510727999999972},
{"address":"Київ, проспект Науки, 47", "title":"ТВО №222 ВД №124", "lat":50.386556, "lng":30.531525999999985},
{"address":"Київ, вул. Блакитного, 8", "title":"ТВО №222 ВД №125", "lat":50.38814499999999, "lng":30.517642000000023},
{"address":"Київ, проспект Науки, 63", "title":"ТВО №222 ВД №126", "lat":50.3769274, "lng":30.538695599999983},
{"address":"Київ, вул. Китаівська, 22", "title":"ТВО №222 ВД №127", "lat":50.4501, "lng":30.523400000000038},
{"address":"Київ, вул Китаївська 22", "title":"ТВО №222 ВД №128", "lat":50.371121, "lng":30.541382999999996},
{"address":"Київ, вул.Червонопрапорна 148", "title":"ТВО №222 ВД №129", "lat":50.34507199999999, "lng":30.533826999999974},
{"address":"Київ, вул. Заболотного академіка, 21", "title":"ТВО №222 ВД №130", "lat":50.3670448, "lng":30.462467100000026},
{"address":"Київ, Велика Окружна дорога, 3", "title":"ТВО №222 ВД №131", "lat":50.410131, "lng":30.389621000000034},
{"address":"Київ, проспект Глушкова академіка, 28", "title":"ТВО №222 ВД №132", "lat":50.366386, "lng":30.449411000000055},
{"address":"Київ, проспект Глушкова академіка, 28", "title":"ТВО №222 ВД №133", "lat":50.366386, "lng":30.449411000000055},
{"address":"Київ, проспект Глушкова академіка, 17а", "title":"ТВО №222 ВД №134", "lat":50.365553, "lng":30.45825400000001},
{"address":"Київ,  проспект Глушкова академіка, 17а", "title":"ТВО №222 ВД №135", "lat":50.365553, "lng":30.45825400000001},
{"address":"Київ,  проспект Глушкова академіка, 17а", "title":"ТВО №222 ВД №136", "lat":50.365553, "lng":30.45825400000001},
{"address":"Київ, вул. Заболотного академіка, 20а", "title":"ТВО №222 ВД №137", "lat":50.365905, "lng":30.462325999999962},
{"address":"Київ, вул. Заболотного академіка, 6а", "title":"ТВО №222 ВД №138", "lat":50.364432, "lng":30.459789999999998},
{"address":"Київ, вул. Заболотного академіка, 6а", "title":"ТВО №222 ВД №139", "lat":50.364432, "lng":30.459789999999998},
{"address":"Київ, вул. Заболотного академіка, 6а", "title":"ТВО №222 ВД №140", "lat":50.364432, "lng":30.459789999999998},
{"address":"Київ, вул. Заболотного академіка, 144", "title":"ТВО №222 ВД №141", "lat":50.356207, "lng":30.47476800000004},
{"address":"Київ, вул. Васильківська, 90а", "title":"ТВО №222 ВД №142", "lat":50.387929, "lng":30.480511999999976},
{"address":"Київ, вул. Ломоносова, 59", "title":"ТВО №222 ВД №143", "lat":50.536708, "lng":30.269198999999958},
{"address":"Київ, проспект Глушкова академіка 2 корп. 7", "title":"ТВО №222 ВД №144", "lat":50.38406, "lng":30.47343490000003},
{"address":"Київ, проспект Глушкова академіка, 2", "title":"ТВО №222 ВД №145", "lat":50.38406, "lng":30.47343490000003},
{"address":"Київ, вул. Вільямса академіка, 9 корп.1", "title":"ТВО №222 ВД №146", "lat":50.386745, "lng":30.461483000000044},
{"address":"Київ, вул. Якубовського, 7д", "title":"ТВО №222 ВД №147", "lat":50.379682, "lng":30.45003500000007},
{"address":"Київ, вул. Якубовського, 7д", "title":"ТВО №222 ВД №148", "lat":50.379682, "lng":30.45003500000007},
{"address":"Київ, вул. Якубовського, 7б", "title":"ТВО №222 ВД №149", "lat":50.38121599999999, "lng":30.450440999999955},
{"address":"Київ, вул. Якубовського, 7б", "title":"ТВО №222 ВД №150", "lat":50.38121599999999, "lng":30.450440999999955},
{"address":"Київ, вул. Касіяна Василя, 8", "title":"ТВО №222 ВД №151", "lat":50.377292, "lng":30.454414000000043},
{"address":"Київ, вул. Якубовського, 7г", "title":"ТВО №222 ВД №152", "lat":50.379364, "lng":30.45216000000005},
{"address":"Київ, вул. Якубовського, 7г", "title":"ТВО №222 ВД №153", "lat":50.379364, "lng":30.45216000000005},
{"address":"Київ, вул. Стельмаха 9", "title":"ТВО №222 ВД №154", "lat":50.492261, "lng":30.75115299999993},
{"address":"Київ, вул. А. Бубнова, 4", "title":"ТВО №222 ВД №155", "lat":50.39249299999999, "lng":30.501706000000013},
{"address":"Київ, вул. Ломоносова, 18", "title":"ТВО №222 ВД №156", "lat":50.5290221, "lng":30.264549100000067},
{"address":"Київ, вул. Бурмистенка, 4", "title":"ТВО №222 ВД №157", "lat":50.390593, "lng":30.498526999999967},
{"address":"Київ, пров. коломиївський, 6", "title":"ТВО №222 ВД №158", "lat":50.4501, "lng":30.523400000000038},
{"address":"Київ, вул. Сеченова, 8", "title":"ТВО №222 ВД №159", "lat":50.389694, "lng":30.490260000000035},
{"address":"Київ, вул. Сеченова, 8", "title":"ТВО №222 ВД №160", "lat":50.389694, "lng":30.490260000000035},
{"address":"Київ, вул.Ломоносова,33/43", "title":"ТВО №222 ВД №161", "lat":50.389595, "lng":30.483203000000003},
{"address":"Київ, вул. Васильківська, 36", "title":"ТВО №222 ВД №162", "lat":50.392244, "lng":30.48346200000003},
{"address":"Київ, проспект 40-річчя Жовтня, 118 - б", "title":"ТВО №222 ВД №163", "lat":50.38658299999999, "lng":30.485311000000024},
{"address":"Київ, просп. 40-річчя Жовтня, 120в", "title":"ТВО №222 ВД №164", "lat":50.386168, "lng":30.484038000000055},
{"address":"Київ, проспект Червонозоряний, 115", "title":"ТВО №222 ВД №165", "lat":50.407996, "lng":30.50604199999998},
{"address":"Київ, гуртожиток №5 Українського університету харчових технологій", "title":"ТВО №222 ВД №166", "lat":50.4501, "lng":30.523400000000038},
{"address":"Київ, Козацька 5", "title":"ТВО №222 ВД №167", "lat":50.405483, "lng":30.512286000000017},
{"address":"Київ, просп. 40-річчя Жовтня, 36", "title":"ТВО №222 ВД №168", "lat":50.404866, "lng":30.515539999999987},
{"address":"Київ, просп. 40-річчя Жовтня, 17б", "title":"ТВО №222 ВД №169", "lat":50.401968, "lng":30.51795400000003},
{"address":"Київ, вул. Голосіївська, 12", "title":"ТВО №222 ВД №170", "lat":50.401171, "lng":30.518699999999967},
{"address":"Київ, вул. Деміївська, 33", "title":"ТВО №222 ВД №171", "lat":50.4022838, "lng":30.509283099999948},
{"address":"Київ, вул. Васильківська, 12", "title":"ТВО №222 ВД №172", "lat":50.396977, "lng":30.502462000000037},
{"address":"Київ, вул. Васильківська 12", "title":"ТВО №222 ВД №173", "lat":50.396977, "lng":30.502462000000037},
{"address":"Київ, вул. Саксаганського 64", "title":"ТВО №222 ВД №174", "lat":50.438358, "lng":30.50391000000002},
{"address":"Київ, вул. Жилянська, 75", "title":"ТВО №222 ВД №175", "lat":50.438605, "lng":30.498246999999992},
{"address":"Київ, вул. Володимирська, 68", "title":"ТВО №222 ВД №176", "lat":50.438453, "lng":30.509960999999976},
{"address":"Київ, вул. Горького 4/6", "title":"ТВО №222 ВД №177", "lat":50.438933, "lng":30.513265000000047},
{"address":"Київ, вул. Жилянська, 46", "title":"ТВО №222 ВД №178", "lat":50.434693, "lng":30.507738000000018},
{"address":"Київ, вул. Горького, 29", "title":"ТВО №222 ВД №179", "lat":50.435289, "lng":30.51398800000004},
{"address":"Київ, вул. Горького, 51", "title":"ТВО №222 ВД №180", "lat":50.428994, "lng":30.513439000000062},
{"address":"Київ, вул. Горького, 130", "title":"ТВО №222 ВД №181", "lat":50.419833, "lng":30.51745900000003},
{"address":"Київ, вул. Горького, 130", "title":"ТВО №222 ВД №182", "lat":50.419833, "lng":30.51745900000003},
{"address":"Київ, вул. Червоноармійська 128", "title":"ТВО №222 ВД №183", "lat":50.417438, "lng":30.52158600000007},
{"address":"Київ, вул. Червоноармійська 128", "title":"ТВО №222 ВД №184", "lat":50.417438, "lng":30.52158600000007},
{"address":"Київ, вул. Урлівська, буд. 19б", "title":"ТВО №222 ВД №185", "lat":50.40853, "lng":30.615714000000025},
{"address":"Київ, вул. Драгоманова, буд. 10в", "title":"ТВО №222 ВД №186", "lat":50.413107, "lng":30.632000000000062},
{"address":"Київ, вул. Драгоманова, буд.9а", "title":"ТВО №222 ВД №187", "lat":50.414085, "lng":30.639885999999933},
{"address":"Київ, проспект Ватутіна, 4 а", "title":"ТВО №223 ВД №1", "lat":50.493682, "lng":30.57911999999999},
{"address":"Київ, вул.Райдужна, 12", "title":"ТВО №223 ВД №2", "lat":50.491438, "lng":30.580079999999953},
{"address":"Київ, вул.Райдужна, 12", "title":"ТВО №223 ВД №3", "lat":50.491438, "lng":30.580079999999953},
{"address":"Київ, вул.Райдужна, 12", "title":"ТВО №223 ВД №4", "lat":50.491438, "lng":30.580079999999953},
{"address":"Київ, вул.Райдужна, 17 б", "title":"ТВО №223 ВД №5", "lat":50.48728699999999, "lng":30.58778099999995},
{"address":"Київ, вул.Райдужна, 17 б", "title":"ТВО №223 ВД №6", "lat":50.48728699999999, "lng":30.58778099999995},
{"address":"Київ, бульвар Перова, 21", "title":"ТВО №223 ВД №7", "lat":50.487109, "lng":30.59135600000002},
{"address":"Київ, вул.Валентина Сєрова, 19", "title":"ТВО №223 ВД №8", "lat":50.4878845, "lng":30.58937190000006},
{"address":"Київ, вул. Райдужна, 53", "title":"ТВО №223 ВД №9", "lat":50.47967999999999, "lng":30.59025399999996},
{"address":"Київ, вул. Райдужна, 53", "title":"ТВО №223 ВД №10", "lat":50.47967999999999, "lng":30.59025399999996},
{"address":"Київ, вул. Райдужна, 53", "title":"ТВО №223 ВД №11", "lat":50.47967999999999, "lng":30.59025399999996},
{"address":"Київ, вул. Старосільська, 2", "title":"ТВО №223 ВД №12", "lat":50.4756014, "lng":30.593469099999993},
{"address":"Київ, бульвар Перова, 21", "title":"ТВО №223 ВД №13", "lat":50.487109, "lng":30.59135600000002},
{"address":"Київ, вул.Миколи Кибальчича, 5", "title":"ТВО №223 ВД №14", "lat":50.49098, "lng":30.59626300000002},
{"address":"Київ, вул.Миколи Кибальчича, 5", "title":"ТВО №223 ВД №15", "lat":50.49098, "lng":30.59626300000002},
{"address":"Київ, вул.Миколи Кибальчича, 5", "title":"ТВО №223 ВД №16", "lat":50.49098, "lng":30.59626300000002},
{"address":"Київ, вул.Миколи Кибальчича, 13б", "title":"ТВО №223 ВД №17", "lat":50.49341399999999, "lng":30.600109999999972},
{"address":"Київ, вул.Миколи Кибальчича, 7", "title":"ТВО №223 ВД №18", "lat":50.491302, "lng":30.598028999999997},
{"address":"Київ, вул.Миколи Кибальчича, 7", "title":"ТВО №223 ВД №19", "lat":50.491302, "lng":30.598028999999997},
{"address":"Київ, вул.Генерала Карбишева, 16/2", "title":"ТВО №223 ВД №20", "lat":50.49022, "lng":30.608457000000044},
{"address":"Київ, вул.Івана Микитенка, 7", "title":"ТВО №223 ВД №21", "lat":50.486479, "lng":30.59709799999996},
{"address":"Київ, вул.Івана Микитенка, 7", "title":"ТВО №223 ВД №22", "lat":50.486479, "lng":30.59709799999996},
{"address":"Київ, вул.Едуарда Вільде, 5", "title":"ТВО №223 ВД №23", "lat":50.48903199999999, "lng":30.605817000000002},
{"address":"Київ, вул.Едуарда Вільде, 5", "title":"ТВО №223 ВД №24", "lat":50.48903199999999, "lng":30.605817000000002},
{"address":"Київ, вул.Сулеймана Стальського, 24 а", "title":"ТВО №223 ВД №25", "lat":50.484566, "lng":30.60540000000003},
{"address":"Київ, вул.Сулеймана Стальського, 26 а", "title":"ТВО №223 ВД №26", "lat":50.483826, "lng":30.60790099999997},
{"address":"Київ, вул.Сулеймана Стальського, 26 а", "title":"ТВО №223 ВД №27", "lat":50.483826, "lng":30.60790099999997},
{"address":"Київ, вул.Сулеймана Стальського, 12", "title":"ТВО №223 ВД №28", "lat":50.48358899999999, "lng":30.59902999999997},
{"address":"Київ, вул.Сулеймана Стальського, 12", "title":"ТВО №223 ВД №29", "lat":50.48358899999999, "lng":30.59902999999997},
{"address":"Київ, бульвар Перова, 3", "title":"ТВО №223 ВД №30", "lat":50.477101, "lng":30.594397999999956},
{"address":"Київ, вул.Сулеймана Стальського, 12", "title":"ТВО №223 ВД №31", "lat":50.48358899999999, "lng":30.59902999999997},
{"address":"Київ, бульвар Перова, 1", "title":"ТВО №223 ВД №32", "lat":50.475537, "lng":30.59549400000003},
{"address":"Київ, вул. П. Запорожця, 26", "title":"ТВО №223 ВД №33", "lat":50.477293, "lng":30.602092399999947},
{"address":"Київ, бульвар Перова, 14 а", "title":"ТВО №223 ВД №34", "lat":50.475035, "lng":30.59979599999997},
{"address":"Київ, бульвар Перова, 14 а", "title":"ТВО №223 ВД №35", "lat":50.475035, "lng":30.59979599999997},
{"address":"Київ, бульвар Перова, 14 а", "title":"ТВО №223 ВД №36", "lat":50.475035, "lng":30.59979599999997},
{"address":"Київ, вул.С.Сагайдака, 101", "title":"ТВО №223 ВД №37", "lat":50.45891899999999, "lng":30.585784999999987},
{"address":"Київ, вул.Луначарського, 5а", "title":"ТВО №223 ВД №38", "lat":50.457092, "lng":30.586070999999947},
{"address":"Київ, вул.Челябінська, 7 а", "title":"ТВО №223 ВД №39", "lat":50.458883, "lng":30.59411799999998},
{"address":"Київ, вул.Челябінська, 5", "title":"ТВО №223 ВД №40", "lat":50.458654, "lng":30.596271},
{"address":"Київ, вул.Луначарського, 5а", "title":"ТВО №223 ВД №41", "lat":50.457092, "lng":30.586070999999947},
{"address":"Київ, вул.Челябінська, 9г", "title":"ТВО №223 ВД №42", "lat":50.459786, "lng":30.59341500000005},
{"address":"Київ, вул.Челябінська, 5", "title":"ТВО №223 ВД №43", "lat":50.458654, "lng":30.596271},
{"address":"Київ, вул.Генерала Жмаченка, 26", "title":"ТВО №223 ВД №44", "lat":50.46916909999999, "lng":30.611407800000052},
{"address":"Київ, вул.Міста Шалетт, 1 а", "title":"ТВО №223 ВД №45", "lat":50.463939, "lng":30.612715999999978},
{"address":"Київ, вул.Міста Шалетт, 1 а", "title":"ТВО №223 ВД №46", "lat":50.463939, "lng":30.612715999999978},
{"address":"Київ, Дарницький бульвар, 23", "title":"ТВО №223 ВД №47", "lat":50.463597, "lng":30.609676000000036},
{"address":"Київ, вул. Миропільська, 13 а", "title":"ТВО №223 ВД №48", "lat":50.465781, "lng":30.62557800000002},
{"address":"Київ, вул. Юності, 5", "title":"ТВО №223 ВД №49", "lat":50.466209, "lng":30.616933000000017},
{"address":"Київ, вул. Юності, 5", "title":"ТВО №223 ВД №50", "lat":50.466209, "lng":30.616933000000017},
{"address":"Київ, вул. Юності, 3", "title":"ТВО №223 ВД №51", "lat":50.463926, "lng":30.615111999999954},
{"address":"Київ, вул. Юності, 3", "title":"ТВО №223 ВД №52", "lat":50.463926, "lng":30.615111999999954},
{"address":"Київ, вул. Андрія Малишка, 25/1", "title":"ТВО №223 ВД №53", "lat":50.46073200000001, "lng":30.62307499999997},
{"address":"Київ, вул. Андрія Малишка, 25/1", "title":"ТВО №223 ВД №54", "lat":50.46073200000001, "lng":30.62307499999997},
{"address":"Київ, бульвар Перова, 2", "title":"ТВО №223 ВД №55", "lat":50.4764382, "lng":30.595795299999963},
{"address":"Київ, вул.Генерала Жмаченка, 10", "title":"ТВО №223 ВД №56", "lat":50.460839, "lng":30.610281999999984},
{"address":"Київ, вул.Будівельників, 37", "title":"ТВО №223 ВД №57", "lat":50.451685, "lng":30.61141299999997},
{"address":"Київ, вул.Попудренка, 34", "title":"ТВО №223 ВД №58", "lat":50.455794, "lng":30.622180999999955},
{"address":"Київ, вул. Будівельників, 37", "title":"ТВО №223 ВД №59", "lat":50.451685, "lng":30.61141299999997},
{"address":"Київ, вул.Будівельників, 37", "title":"ТВО №223 ВД №60", "lat":50.451685, "lng":30.61141299999997},
{"address":"Київ, вул.Червоноткацька, 12", "title":"ТВО №223 ВД №61", "lat":50.45037, "lng":30.616315999999983},
{"address":"Київ, б-р Верховної Ради, 15", "title":"ТВО №223 ВД №62", "lat":50.448825, "lng":30.61767199999997},
{"address":"Київ, вул.Краківська, 20", "title":"ТВО №223 ВД №63", "lat":50.455085, "lng":30.62525699999992},
{"address":"Київ, вул. Краківська, 13", "title":"ТВО №223 ВД №64", "lat":50.456266, "lng":30.623835999999983},
{"address":"Київ, проспект Юрія Гагаріна, 19", "title":"ТВО №223 ВД №65", "lat":50.4506355, "lng":30.63022269999999},
{"address":"Київ, проспект Юрія Гагаріна, 19", "title":"ТВО №223 ВД №66", "lat":50.4506355, "lng":30.63022269999999},
{"address":"Київ, проспект Юрія Гагаріна, 11", "title":"ТВО №223 ВД №67", "lat":50.447537, "lng":30.62614899999994},
{"address":"Київ, вул. Будівельників, 10", "title":"ТВО №223 ВД №68", "lat":50.446881, "lng":30.622784000000024},
{"address":"Київ, проспект Юрія Гагаріна, 16", "title":"ТВО №223 ВД №69", "lat":50.44913099999999, "lng":30.630161000000044},
{"address":"Київ, вул. Івана Сергієнка, 7", "title":"ТВО №223 ВД №70", "lat":50.44578, "lng":30.629942000000028},
{"address":"Київ, Харківське шосе, 7/1", "title":"ТВО №223 ВД №71", "lat":50.439319, "lng":30.630695999999944},
{"address":"Київ, Харківське шосе, 15", "title":"ТВО №223 ВД №72", "lat":50.4346983, "lng":30.633562799999936},
{"address":"Київ, вул. Празька, 14", "title":"ТВО №223 ВД №73", "lat":50.439409, "lng":30.633383999999978},
{"address":"Київ, вул. Празька, 14", "title":"ТВО №223 ВД №74", "lat":50.439409, "lng":30.633383999999978},
{"address":"Київ, вул. Празька, 14", "title":"ТВО №223 ВД №75", "lat":50.439409, "lng":30.633383999999978},
{"address":"Київ, вул. Гродненська, 11", "title":"ТВО №223 ВД №76", "lat":50.437805, "lng":30.646011000000044},
{"address":"Київ, вул. Алма-Атинська, 8.", "title":"ТВО №223 ВД №77", "lat":50.4376094, "lng":30.652542100000005},
{"address":"Київ, вул. Хорольська, 19", "title":"ТВО №223 ВД №78", "lat":50.435682, "lng":30.63807900000006},
{"address":"Київ, вул. Хорольська, 19", "title":"ТВО №223 ВД №79", "lat":50.435682, "lng":30.63807900000006},
{"address":"Київ, вул. Хорольська, 19", "title":"ТВО №223 ВД №80", "lat":50.435682, "lng":30.63807900000006},
{"address":"Київ, вул. Алма-Атинська, 39-б", "title":"ТВО №223 ВД №81", "lat":50.443571, "lng":30.66119100000003},
{"address":"Київ, вул. Алма-Атинська, 89", "title":"ТВО №223 ВД №82", "lat":50.446167, "lng":30.67066299999999},
{"address":"Київ, вул.  Алма-Атинська, 89", "title":"ТВО №223 ВД №83", "lat":50.446167, "lng":30.67066299999999},
{"address":"Київ, вул. Алма-Атинська, 109", "title":"ТВО №223 ВД №84", "lat":50.45202099999999, "lng":30.679795000000013},
{"address":"Київ, вул. Алма-Атинська, 109", "title":"ТВО №223 ВД №85", "lat":50.45202099999999, "lng":30.679795000000013},
{"address":"Київ, вул. Алма-Атинська, 113", "title":"ТВО №223 ВД №86", "lat":50.45341699999999, "lng":30.683167000000026},
{"address":"Київ, вул. Березнева, 5", "title":"ТВО №223 ВД №87", "lat":50.433336, "lng":30.629617000000053},
{"address":"Київ, вул. Березнева, 5", "title":"ТВО №223 ВД №88", "lat":50.433336, "lng":30.629617000000053},
{"address":"Київ, вул. Каунаська, 2", "title":"ТВО №223 ВД №89", "lat":50.43904999999999, "lng":30.62475399999994},
{"address":"Київ, вул. Каунаська, 2", "title":"ТВО №223 ВД №90", "lat":50.43904999999999, "lng":30.62475399999994},
{"address":"Київ, вул. Будівельників, 10", "title":"ТВО №223 ВД №91", "lat":50.446881, "lng":30.622784000000024},
{"address":"Київ, проспект Миру, 11", "title":"ТВО №223 ВД №92", "lat":50.44389899999999, "lng":30.61751700000002},
{"address":"Київ, проспект Возз’єднання, 12в", "title":"ТВО №223 ВД №93", "lat":50.44206399999999, "lng":30.618424000000005},
{"address":"Київ, просп.Миру, 11", "title":"ТВО №223 ВД №94", "lat":50.44389899999999, "lng":30.61751700000002},
{"address":"Київ, проспект Возз’єднання, 12 в", "title":"ТВО №223 ВД №95", "lat":50.44206399999999, "lng":30.618424000000005},
{"address":"Київ, вул. Тампере, 9", "title":"ТВО №223 ВД №96", "lat":50.442678, "lng":30.612801999999988},
{"address":"Київ, вул. Тампере, 9", "title":"ТВО №223 ВД №97", "lat":50.442678, "lng":30.612801999999988},
{"address":"Київ, вул. Раїси Окіпної, 6", "title":"ТВО №223 ВД №98", "lat":50.449138, "lng":30.59263999999996},
{"address":"Київ, вул. Ованеса Туманяна, 2", "title":"ТВО №223 ВД №99", "lat":50.44772, "lng":30.60098400000004},
{"address":"Київ, вул. Плеханова, 2", "title":"ТВО №223 ВД №100", "lat":50.44755, "lng":30.600559999999973},
{"address":"Київ, вул. Ентузіастів, 29/3", "title":"ТВО №223 ВД №101", "lat":50.440253, "lng":30.602051999999958},
{"address":"Київ, бульвар Олексія Давидова, 17", "title":"ТВО №223 ВД №102", "lat":50.441498, "lng":30.596542999999997},
{"address":"Київ, бульвар Олексія Давидова, 17", "title":"ТВО №223 ВД №103", "lat":50.441498, "lng":30.596542999999997},
{"address":"Київ, вул. Ентузіастів, 29/3", "title":"ТВО №223 ВД №104", "lat":50.440253, "lng":30.602051999999958},
{"address":"Київ, вул. Бульвар Олексія Давидова, 18/2", "title":"ТВО №223 ВД №105", "lat":50.4501, "lng":30.523400000000038},
{"address":"Київ, вул. Ентузіастів, 9 в", "title":"ТВО №223 ВД №106", "lat":50.437244, "lng":30.601589999999987},
{"address":"Київ, вул. Ентузіастів, 7/4", "title":"ТВО №223 ВД №107", "lat":50.43828800000001, "lng":30.59977200000003},
{"address":"Київ, вул. Ентузіастів, 7/4", "title":"ТВО №223 ВД №108", "lat":50.43828800000001, "lng":30.59977200000003},
{"address":"Київ, бульвар Олексія Давидова, 5", "title":"ТВО №223 ВД №109", "lat":50.436148, "lng":30.596871999999962},
{"address":"Київ, бульвар Олексія Давидова, 5", "title":"ТВО №223 ВД №110", "lat":50.436148, "lng":30.596871999999962},
{"address":"Київ, бульвар Олексія Давидова, 5", "title":"ТВО №223 ВД №111", "lat":50.436148, "lng":30.596871999999962},
{"address":"Київ, вул. Серафимовича, 9 а", "title":"ТВО №223 ВД №112", "lat":50.43207899999999, "lng":30.600703000000067},
{"address":"Київ, вул. Серафимовича, 9 а", "title":"ТВО №223 ВД №113", "lat":50.43207899999999, "lng":30.600703000000067},
{"address":"Київ, бульвар А.Бучми, 7а", "title":"ТВО №223 ВД №114", "lat":50.430964, "lng":30.60641899999996},
{"address":"Київ, вул. Серафимовича, 17а", "title":"ТВО №223 ВД №115", "lat":50.43371, "lng":30.60922000000005},
{"address":"Київ, вул. Серафимовича, 17а", "title":"ТВО №223 ВД №116", "lat":50.43371, "lng":30.60922000000005},
{"address":"Київ, вул. Серафимовича, 17а", "title":"ТВО №223 ВД №117", "lat":50.43371, "lng":30.60922000000005},
{"address":"Київ, проспект П.Тичини, 22 а", "title":"ТВО №223 ВД №118", "lat":50.42921399999999, "lng":30.60960799999998},
{"address":"Київ, вул. Серафимовича, 17 а", "title":"ТВО №223 ВД №119", "lat":50.43371, "lng":30.60922000000005},
{"address":"Київ, проспект П.Тичини, 22 а", "title":"ТВО №223 ВД №120", "lat":50.42921399999999, "lng":30.60960799999998},
{"address":"Київ, вул. Березняківська, 30 б", "title":"ТВО №223 ВД №121", "lat":50.427575, "lng":30.61137800000006},
{"address":"Київ, вул. Березняківська, 30 б", "title":"ТВО №223 ВД №122", "lat":50.427575, "lng":30.61137800000006},
{"address":"Київ, вул. Ю.Шумського, 6 б", "title":"ТВО №223 ВД №123", "lat":50.4247163, "lng":30.60051659999999},
{"address":"Київ, вул. Березняківська, 32", "title":"ТВО №223 ВД №124", "lat":50.422902, "lng":30.601973000000044},
{"address":"Київ, вул. Березняківська, 32", "title":"ТВО №223 ВД №125", "lat":50.422902, "lng":30.601973000000044},
{"address":"Київ, вул. Березняківська, 34", "title":"ТВО №223 ВД №126", "lat":50.422934, "lng":30.599914000000012},
{"address":"Київ, вул. Березняківська, 34", "title":"ТВО №223 ВД №127", "lat":50.422934, "lng":30.599914000000012},
{"address":"Київ, вул. Березняківська, 32", "title":"ТВО №223 ВД №128", "lat":50.422902, "lng":30.601973000000044},
{"address":"Київ, вул. Бальзака, 8-г", "title":"ТВО №224 ВД №1", "lat":50.501594, "lng":30.580071999999973},
{"address":"Київ, вул. Бальзака, 8-г", "title":"ТВО №224 ВД №2", "lat":50.501594, "lng":30.580071999999973},
{"address":"Київ,  пр. Маяковського, 3г", "title":"ТВО №224 ВД №3", "lat":50.499084, "lng":30.583691000000044},
{"address":"Київ,  пр. Маяковського, 3г", "title":"ТВО №224 ВД №4", "lat":50.499084, "lng":30.583691000000044},
{"address":"Київ, пр. Маяковського, 3г", "title":"ТВО №224 ВД №5", "lat":50.499084, "lng":30.583691000000044},
{"address":"Київ, вул. Каштанова, 8г", "title":"ТВО №224 ВД №6", "lat":50.50402099999999, "lng":30.587896},
{"address":"Київ, пр. Маяковського, 21 г", "title":"ТВО №224 ВД №7", "lat":50.50354799999999, "lng":30.593634000000065},
{"address":"Київ, пр.  Маяковського, 21 г", "title":"ТВО №224 ВД №8", "lat":50.50354799999999, "lng":30.593634000000065},
{"address":"Київ, пр.  Маяковського, 21г", "title":"ТВО №224 ВД №9", "lat":50.506615, "lng":30.592290999999932},
{"address":"Київ, пр . Маяковського, 21в", "title":"ТВО №224 ВД №10", "lat":50.50580799999999, "lng":30.590233000000012},
{"address":"Київ, пр. Маяковського,  21в", "title":"ТВО №224 ВД №11", "lat":50.50580799999999, "lng":30.590233000000012},
{"address":"Київ, пр.  Маяковського, 21в", "title":"ТВО №224 ВД №12", "lat":50.50580799999999, "lng":30.590233000000012},
{"address":"Київ, вул. Закревського, 3", "title":"ТВО №224 ВД №13", "lat":50.497862, "lng":30.59228200000007},
{"address":"Київ, вул. Закревського, 11а", "title":"ТВО №224 ВД №14", "lat":50.49982199999999, "lng":30.596475000000055},
{"address":"Київ, вул. Закревського, 11а", "title":"ТВО №224 ВД №15", "lat":50.49982199999999, "lng":30.596475000000055},
{"address":"Київ, вул. Закревського, 11а", "title":"ТВО №224 ВД №16", "lat":50.49982199999999, "lng":30.596475000000055},
{"address":"Київ, вул. Закревського, 15б", "title":"ТВО №224 ВД №17", "lat":50.499797, "lng":30.59977200000003},
{"address":"Київ, вул. Закревського, 15б", "title":"ТВО №224 ВД №18", "lat":50.499797, "lng":30.59977200000003},
{"address":"Київ, вул. Закревського, 15", "title":"ТВО №224 ВД №19", "lat":50.497862, "lng":30.59993499999996},
{"address":"Київ, вул. Закревського,15б", "title":"ТВО №224 ВД №20", "lat":50.499797, "lng":30.59977200000003},
{"address":"Київ, вул. Беретті, 7", "title":"ТВО №224 ВД №21", "lat":50.510105, "lng":30.602985999999987},
{"address":"Київ, вул. Беретті, 7", "title":"ТВО №224 ВД №22", "lat":50.510105, "lng":30.602985999999987},
{"address":"Київ, вул. Беретті, 7", "title":"ТВО №224 ВД №23", "lat":50.510105, "lng":30.602985999999987},
{"address":"Київ, вул. Беретті, 18", "title":"ТВО №224 ВД №24", "lat":50.512009, "lng":30.601133000000004},
{"address":"Київ, вул. Сабурова, 19 б", "title":"ТВО №224 ВД №25", "lat":50.512941, "lng":30.606278999999972},
{"address":"Київ, вул. Сабурова, 19б", "title":"ТВО №224 ВД №26", "lat":50.512941, "lng":30.606278999999972},
{"address":"Київ, вул. Маяковського, 49 б", "title":"ТВО №224 ВД №27", "lat":50.494321, "lng":30.76134400000001},
{"address":"Київ, вул. Маяковського, 49б", "title":"ТВО №224 ВД №28", "lat":50.494321, "lng":30.76134400000001},
{"address":"Київ, вул. Закревського, 37б", "title":"ТВО №224 ВД №29", "lat":50.50568999999999, "lng":30.612486999999987},
{"address":"Київ, вул. Закревського, 45б", "title":"ТВО №224 ВД №30", "lat":50.507677, "lng":30.61481500000002},
{"address":"Київ, вул. Сабурова, 3а", "title":"ТВО №224 ВД №31", "lat":50.510015, "lng":30.616490999999996},
{"address":"Київ, вул. Закревського, 45б", "title":"ТВО №224 ВД №32", "lat":50.507677, "lng":30.61481500000002},
{"address":"Київ, вул. Закревського, 45б", "title":"ТВО №224 ВД №33", "lat":50.507677, "lng":30.61481500000002},
{"address":"Київ, вул. Закревського, 37б", "title":"ТВО №224 ВД №34", "lat":50.50568999999999, "lng":30.612486999999987},
{"address":"Київ, вул. Драйзера, 6", "title":"ТВО №224 ВД №35", "lat":50.501937, "lng":30.60609199999999},
{"address":"Київ, вул. Закревського, 35б", "title":"ТВО №224 ВД №36", "lat":50.504266, "lng":30.610239999999976},
{"address":"Київ, вул. Закревського, 35б", "title":"ТВО №224 ВД №37", "lat":50.504266, "lng":30.610239999999976},
{"address":"Київ, вул. Закревського, 35б", "title":"ТВО №224 ВД №38", "lat":50.504266, "lng":30.610239999999976},
{"address":"Київ, вул. Закревського, 29а", "title":"ТВО №224 ВД №39", "lat":50.50148, "lng":30.609312000000045},
{"address":"Київ, вул. Драйзера, 40б", "title":"ТВО №224 ВД №40", "lat":50.51510200000001, "lng":30.595762000000036},
{"address":"Київ, вул. Драйзера, 40б", "title":"ТВО №224 ВД №41", "lat":50.51510200000001, "lng":30.595762000000036},
{"address":"Київ, вул. Драйзера, 40б", "title":"ТВО №224 ВД №42", "lat":50.51510200000001, "lng":30.595762000000036},
{"address":"Київ, вул. Градинська, 6б", "title":"ТВО №224 ВД №43", "lat":50.52029599999999, "lng":30.601635999999985},
{"address":"Київ, вул. Радунська, 18", "title":"ТВО №224 ВД №44", "lat":50.521882, "lng":30.598678999999947},
{"address":"Київ, вул. Лисківська, 7б", "title":"ТВО №224 ВД №45", "lat":50.4501, "lng":30.523400000000038},
{"address":"Київ, вул. Градинська, 6б", "title":"ТВО №224 ВД №46", "lat":50.52029599999999, "lng":30.601635999999985},
{"address":"Київ, вул. Леніна, 27", "title":"ТВО №224 ВД №47", "lat":50.38595, "lng":30.693585999999982},
{"address":"Київ, вул. Сабурова, 20", "title":"ТВО №224 ВД №48", "lat":50.515949, "lng":30.607320000000072},
{"address":"Київ, вул. Данькевича, 13", "title":"ТВО №224 ВД №49", "lat":50.52050699999999, "lng":30.614780999999994},
{"address":"Київ, вул. Данькевича, 13", "title":"ТВО №224 ВД №50", "lat":50.52050699999999, "lng":30.614780999999994},
{"address":"Київ, вул. Данькевича, 13", "title":"ТВО №224 ВД №51", "lat":50.52050699999999, "lng":30.614780999999994},
{"address":"Київ, вул. Сабурова, 14", "title":"ТВО №224 ВД №52", "lat":50.515449, "lng":30.61161900000002},
{"address":"Київ, вул. Сабурова, 14", "title":"ТВО №224 ВД №53", "lat":50.515449, "lng":30.61161900000002},
{"address":"Київ, вул. Сабурова, 14", "title":"ТВО №224 ВД №54", "lat":50.515449, "lng":30.61161900000002},
{"address":"Київ, вул. Сабурова, 6", "title":"ТВО №224 ВД №55", "lat":50.512419, "lng":30.618934999999965},
{"address":"Київ, вул. Сабурова, 6", "title":"ТВО №224 ВД №56", "lat":50.512419, "lng":30.618934999999965},
{"address":"Київ, вул. Закревського, 65а", "title":"ТВО №224 ВД №57", "lat":50.51559, "lng":30.62332600000002},
{"address":"Київ, вул. Данькевича, 5", "title":"ТВО №224 ВД №58", "lat":50.519529, "lng":30.623193000000015},
{"address":"Київ, вул. Данькевича, 5", "title":"ТВО №224 ВД №59", "lat":50.519529, "lng":30.623193000000015},
{"address":"Київ, вул. Данькевича,5", "title":"ТВО №224 ВД №60", "lat":50.519529, "lng":30.623193000000015},
{"address":"Київ, вул. Закревського, 65а", "title":"ТВО №224 ВД №61", "lat":50.51559, "lng":30.62332600000002},
{"address":"Київ, вул. Закревського, 65а", "title":"ТВО №224 ВД №62", "lat":50.51559, "lng":30.62332600000002},
{"address":"Київ, вул. Сабурова, 6", "title":"ТВО №224 ВД №63", "lat":50.512419, "lng":30.618934999999965},
{"address":"Київ, вул. Лисківська, 4а", "title":"ТВО №224 ВД №64", "lat":50.4501, "lng":30.523400000000038},
{"address":"Київ, вул. Лисківська, 4б", "title":"ТВО №224 ВД №65", "lat":50.4501, "lng":30.523400000000038},
{"address":"Київ, вул. Лисківська,4б", "title":"ТВО №224 ВД №66", "lat":50.4501, "lng":30.523400000000038},
{"address":"Київ, вул. Лисківська, 4б", "title":"ТВО №224 ВД №67", "lat":50.4501, "lng":30.523400000000038},
{"address":"Київ, вул. Лисківська, 4а", "title":"ТВО №224 ВД №68", "lat":50.4501, "lng":30.523400000000038},
{"address":"Київ, вул. Будищанська, 8", "title":"ТВО №224 ВД №69", "lat":50.53034, "lng":30.604047000000037},
{"address":"Київ, вул. Будищанська, 8", "title":"ТВО №224 ВД №70", "lat":50.53034, "lng":30.604047000000037},
{"address":"Київ, вул. Милославська ,33а", "title":"ТВО №224 ВД №71", "lat":50.53205, "lng":30.604569999999967},
{"address":"Київ, вул. Будищанська, 8", "title":"ТВО №224 ВД №72", "lat":50.53034, "lng":30.604047000000037},
{"address":"Київ, вул. Маяковського, 93е", "title":"ТВО №224 ВД №73", "lat":50.494535, "lng":30.767288000000008},
{"address":"Київ, вул. Маяковського, 93 в", "title":"ТВО №224 ВД №74", "lat":50.494535, "lng":30.767288000000008},
{"address":"Київ, вул. Маяковського, 93в", "title":"ТВО №224 ВД №75", "lat":50.494535, "lng":30.767288000000008},
{"address":"Київ, вул. Милославська, 27", "title":"ТВО №224 ВД №76", "lat":50.532103, "lng":30.612053999999944},
{"address":"Київ, вул. Маяковського, 93 г", "title":"ТВО №224 ВД №77", "lat":50.494535, "lng":30.767288000000008},
{"address":"Київ, вул. Маяковського, 93г", "title":"ТВО №224 ВД №78", "lat":50.494535, "lng":30.767288000000008},
{"address":"Київ, вул. Маяковського, 93г", "title":"ТВО №224 ВД №79", "lat":50.494535, "lng":30.767288000000008},
{"address":"Київ, вул. Цвєтаєвої, 14 в", "title":"ТВО №224 ВД №80", "lat":50.525994, "lng":30.61645999999996},
{"address":"Київ, вул. Цвєтаєвої, 14в", "title":"ТВО №224 ВД №81", "lat":50.525994, "lng":30.61645999999996},
{"address":"Київ, вул. Цвєтаєвої, 6", "title":"ТВО №224 ВД №82", "lat":50.523563, "lng":30.625313000000006},
{"address":"Київ, вул. Закревського, 87д", "title":"ТВО №224 ВД №83", "lat":50.526267, "lng":30.623716999999942},
{"address":"Київ, вул. Милославська,7", "title":"ТВО №224 ВД №84", "lat":50.527999, "lng":30.62326699999994},
{"address":"Київ, вул. Милославська, 7", "title":"ТВО №224 ВД №85", "lat":50.527999, "lng":30.62326699999994},
{"address":"Київ, вул. Цвєтаєвої, 6", "title":"ТВО №224 ВД №86", "lat":50.523563, "lng":30.625313000000006},
{"address":"Київ, вул. Мілютенка, 5", "title":"ТВО №224 ВД №87", "lat":50.466491, "lng":30.633817000000022},
{"address":"Київ, вул. Мілютенка, 5", "title":"ТВО №224 ВД №88", "lat":50.466491, "lng":30.633817000000022},
{"address":"Київ, вул. Мілютенка,5б", "title":"ТВО №224 ВД №89", "lat":50.467181, "lng":30.63342499999999},
{"address":"Київ, вул. Кіото, 11а", "title":"ТВО №224 ВД №90", "lat":50.464333, "lng":30.63375999999994},
{"address":"Київ, вул. Шолом-Алейхема,16а", "title":"ТВО №224 ВД №91", "lat":50.47193499999999, "lng":30.636555000000044},
{"address":"Київ, вул. Шолом-Алейхема, 16а", "title":"ТВО №224 ВД №92", "lat":50.47193499999999, "lng":30.636555000000044},
{"address":"Київ, вул. Шолом-Алейхема,  16а", "title":"ТВО №224 ВД №93", "lat":50.47193499999999, "lng":30.636555000000044},
{"address":"Київ, вул. Матеюка, 2", "title":"ТВО №224 ВД №94", "lat":50.468595, "lng":30.63482399999998},
{"address":"Київ, вул. Курчатова, 6а", "title":"ТВО №224 ВД №95", "lat":50.473951, "lng":30.62578099999996},
{"address":"Київ, вул. Курчатова, 6а", "title":"ТВО №224 ВД №96", "lat":50.473951, "lng":30.62578099999996},
{"address":"Київ, вул. Курчатова, 6а", "title":"ТВО №224 ВД №97", "lat":50.473951, "lng":30.62578099999996},
{"address":"Київ, вул. Братиславська,  5", "title":"ТВО №224 ВД №98", "lat":50.474823, "lng":30.617544700000053},
{"address":"Київ, вул. Братиславська, 5", "title":"ТВО №224 ВД №99", "lat":50.474823, "lng":30.617544700000053},
{"address":"Київ, вул. Курчатова,  3б", "title":"ТВО №224 ВД №100", "lat":50.477597, "lng":30.623671999999942},
{"address":"Київ, вул. Лісовий, 17г", "title":"ТВО №224 ВД №101", "lat":50.3922284, "lng":30.70121119999999},
{"address":"Київ, вул. Братиславська, 3", "title":"ТВО №224 ВД №102", "lat":50.472586, "lng":30.619300000000067},
{"address":"Київ, вул. Миропільська, 8", "title":"ТВО №224 ВД №103", "lat":50.472931, "lng":30.615762000000018},
{"address":"Київ, вул. Курчатова, 18/1", "title":"ТВО №224 ВД №104", "lat":50.476927, "lng":30.632442999999967},
{"address":"Київ, вул. Курчатова, 18/1", "title":"ТВО №224 ВД №105", "lat":50.476927, "lng":30.632442999999967},
{"address":"Київ, вул. Курчатова, 18/2", "title":"ТВО №224 ВД №106", "lat":50.47645, "lng":30.634788999999955},
{"address":"Київ, вул. Курчатова,  18/2", "title":"ТВО №224 ВД №107", "lat":50.47645, "lng":30.634788999999955},
{"address":"Київ, вул. Лісовий, 22а", "title":"ТВО №224 ВД №108", "lat":50.39174999999999, "lng":30.701495000000023},
{"address":"Київ, вул. Лісовий,  22а", "title":"ТВО №224 ВД №109", "lat":50.39174999999999, "lng":30.701495000000023},
{"address":"Київ, вул. Курчатова,  21а", "title":"ТВО №224 ВД №110", "lat":50.478921, "lng":30.632334000000014},
{"address":"Київ, вул. Жукова, 2", "title":"ТВО №224 ВД №111", "lat":50.476524, "lng":30.63992899999994},
{"address":"Київ, вул. Лісовий,  17г", "title":"ТВО №224 ВД №112", "lat":50.3922284, "lng":30.70121119999999},
{"address":"Київ, вул. Лісовий,  17в", "title":"ТВО №224 ВД №113", "lat":50.3922284, "lng":30.70121119999999},
{"address":"Київ, вул. Лісовий, 17в", "title":"ТВО №224 ВД №114", "lat":50.3922284, "lng":30.70121119999999},
{"address":"Київ, вул. Лісовий, 17г", "title":"ТВО №224 ВД №115", "lat":50.3922284, "lng":30.70121119999999},
{"address":"Київ, вул. Лісовий, 33а", "title":"ТВО №224 ВД №116", "lat":50.3907062, "lng":30.703785100000005},
{"address":"Київ, вул. Жукова, 26а", "title":"ТВО №224 ВД №117", "lat":50.48631899999999, "lng":30.634446000000025},
{"address":"Київ, вул. Лісовий, 33 б", "title":"ТВО №224 ВД №118", "lat":50.48698, "lng":30.63601600000004},
{"address":"Київ, вул. Лісовий, 33б", "title":"ТВО №224 ВД №119", "lat":50.3907062, "lng":30.703785100000005},
{"address":"Київ, вул. Лісовий, 33а", "title":"ТВО №224 ВД №120", "lat":50.3907062, "lng":30.703785100000005},
{"address":"Київ, вул. Путивльська,  35", "title":"ТВО №224 ВД №121", "lat":50.473962, "lng":30.669742000000042},
{"address":"Київ, вул. Путивльська,  35", "title":"ТВО №224 ВД №122", "lat":50.473962, "lng":30.669742000000042}
]
