[
{"address":"Киев  40-Летия Октября Пр-Т  дом 11", "title":"5250109;  Воробей Нє", "lat":50.40315200000001, "lng":30.519786},
{"address":"Киев  40-Летия Октября Пр-Т  дом 15/Б", "title":"2646016;  Андреева Ва", "lat":50.40228, "lng":30.519146},
{"address":"Киев  40-Летия Октября Пр-Т  дом 21", "title":"5255359;  Вауліна Нп", "lat":50.40131599999999, "lng":30.515763},
{"address":"Киев  40-Летия Октября Пр-Т  дом 23", "title":"5254723;  Лебединець Тм", "lat":50.400963, "lng":30.514653},
{"address":"Киев  40-Летия Октября Пр-Т  дом 118/2", "title":"2571893;  Синозацький Оi", "lat":50.38110200000001, "lng":30.472872},
{"address":"Киев  40-Летия Октября Пр-Т  дом 120/3", "title":"2572713;  Дубровська Лі", "lat":50.384639, "lng":30.4848},
{"address":"Киев  50-Летия Октября Пр-Т  дом 1/Б", "title":"4075681;  Халаберда Ло", "lat":50.429092, "lng":30.396304},
{"address":"Киев  50-Летия Октября Пр-Т  дом 3/А", "title":"2744282;  Чеканюк Вф", "lat":50.431578, "lng":30.39615},
{"address":"Киев  50-Летия Октября Пр-Т  дом 3/Г", "title":"4032353;  Котенко Ад", "lat":50.430797, "lng":30.394443},
{"address":"Киев  50-Летия Октября Пр-Т  дом 10", "title":"2767688;  Ващенко Вб", "lat":50.42871599999999, "lng":30.379558},
{"address":"Киев  50-Летия Октября Пр-Т  дом 12/Б", "title":"4057719;  Урбан Аа", "lat":50.430343, "lng":30.376124},
{"address":"Киев  50-Летия Октября Пр-Т  дом 18", "title":"2746503;  Король Iр", "lat":50.4261756, "lng":30.3706019},
{"address":"Киев  Автозаводская Ул.  дом 5/А", "title":"4605069;  Сыч Дя", "lat":50.499184, "lng":30.459338},
{"address":"Киев  Автозаводская Ул.  дом 27", "title":"4306225;  Даниленко Та", "lat":50.507171, "lng":30.457487},
{"address":"Киев  Автозаводская Ул.  дом 89", "title":"4323998;  Шпакова Лд", "lat":50.517235, "lng":30.453041},
{"address":"Киев  Антонова Авиаконст  дом 2/32-03", "title":"2440332;  Прохоров Оа", "lat":50.4501, "lng":30.5234},
{"address":"Киев  Антонова Авиаконст  дом 11", "title":"2484404;  Прядченко Юа", "lat":50.4501, "lng":30.5234},
{"address":"Киев  Антоновича Ул.  дом 14", "title":"2890912;  Київське Мiське Вiддiлення Стд України Київське Мiське Вiддiлення Спiлки Театральних Дiячi", "lat":50.437946, "lng":30.513226},
{"address":"Киев  Антоновича Ул.  дом 104", "title":"5283577;  Розуменко Вк", "lat":50.42360000000001, "lng":30.515579},
{"address":"Киев  Антоновича Ул.  дом 106", "title":"5216960;  Рябець Аi", "lat":50.42307, "lng":30.515137},
{"address":"Киев  Армянская Ул.  дом 29", "title":"5605969;  Самусенко Вп", "lat":50.409492, "lng":30.673378},
{"address":"Киев  Артема Ул.  дом 31", "title":"4869243;  Свинко Вй", "lat":50.456084, "lng":30.49865},
{"address":"Киев  Артема Ул.  дом 33/А", "title":"4860577;  Кіба Ад", "lat":50.456151, "lng":30.498179},
{"address":"Киев  Артема Ул.  дом 52", "title":"4864173;  Зданович Iє", "lat":50.4562654, "lng":30.4920992},
{"address":"Киев  Артема Ул.  дом 52/Д", "title":"4813809;  Академiя Педагогiчних Наук України Академiя Педагогiчних Наук України", "lat":50.4562654, "lng":30.4920992},
{"address":"Киев  Артема Ул.  дом 75", "title":"4836158;  Управлiння Освiти Шевч.рда М.києва Управлiння Освiти Шевченківської Районної У М.києві Дер", "lat":50.45630999999999, "lng":30.489585},
{"address":"Киев  Ахматовой А. Ул.  дом 14/Б", "title":"5721219;  Козіч Єм", "lat":50.41168700000001, "lng":30.634471},
{"address":"Киев  Бабушкина Пер.  дом 29/А", "title":"4433373;  Кутняк Мс", "lat":50.46301, "lng":30.413217},
{"address":"Киев  Бажана Пр-Т  дом 7/А", "title":"5605198;  Жилинський Ва", "lat":50.40401900000001, "lng":30.661163},
{"address":"Киев  Бажана Пр-Т  дом 9/З", "title":"5637759;  Скрипченко Мв", "lat":50.403965, "lng":30.665905},
{"address":"Киев  Бажана Пр-Т  дом 26", "title":"5747724;  Меняйлова Ні", "lat":50.398836, "lng":30.645561},
{"address":"Киев  Бажова Ул.  дом 4", "title":"5592477;  Качан Гi", "lat":50.4507376, "lng":30.6189204},
{"address":"Киев  Бальзака О. Ул.  дом 24", "title":"5472801;  Козюк Вс", "lat":50.50757, "lng":30.59088199999999},
{"address":"Киев  Бальзака О. Ул.  дом 65/А", "title":"5349516;  Філько Пп", "lat":50.522047, "lng":30.60486},
{"address":"Киев  Бальзака О. Ул.  дом 88/А", "title":"5334826;  Лапшин Вм", "lat":50.527919, "lng":30.612645},
{"address":"Киев  Баумана Пер.  дом 60", "title":"4223727;  Кармазін Сс", "lat":50.470521, "lng":30.421987},
{"address":"Киев  Белецкого Академик  дом 3", "title":"4047334;  Пшенична Со", "lat":50.431566, "lng":30.421395},
{"address":"Киев  Березняковская Ул.  дом 10", "title":"5501753;  Шаповалова Вм", "lat":50.433813, "lng":30.612731},
{"address":"Киев  Березняковская Ул.  дом 24", "title":"5508627;  Дворник Во", "lat":50.427059, "lng":30.614294},
{"address":"Киев  Березняковская Ул.  дом 34/А", "title":"5502961;  Горох Ні", "lat":50.4237707, "lng":30.5985503},
{"address":"Киев  Беретти В. Ул.  дом 5/А", "title":"5480862;  Ярмаш Мг", "lat":50.508815, "lng":30.603716},
{"address":"Киев  Блюхера В. Ул.  дом 1/15", "title":"4436783;  Сумская Ол", "lat":50.481751, "lng":30.403136},
{"address":"Киев  Блюхера В. Ул.  дом 2/А", "title":"4434817;  Бутрік Ом", "lat":50.482766, "lng":30.401527},
{"address":"Киев  Блюхера В. Ул.  дом 8", "title":"4494691;  Макаревич Оп", "lat":50.482195, "lng":30.400824},
{"address":"Киев  Блюхера В. Ул.  дом 9", "title":"4433892;  Ладан Нф", "lat":50.480888, "lng":30.399981},
{"address":"Киев  Богатырская Ул.  дом 16", "title":"4142147;  Гапонов Єл", "lat":50.522104, "lng":30.486044},
{"address":"Киев  Богатырская Ул.  дом 18", "title":"4261833;  Сидоренко Оп", "lat":50.522414, "lng":30.487882},
{"address":"Киев  Богатырская Ул.  дом 18", "title":"4261900;  Романенко Зв", "lat":50.522414, "lng":30.487882},
{"address":"Киев  Богомольца Академи  дом 7/14", "title":"2532343;  Грушко Ма", "lat":50.4501, "lng":30.5234},
{"address":"Киев  Бойченко А. Ул.  дом 10", "title":"5136502;  Черепова Нд", "lat":50.46353999999999, "lng":30.621568},
{"address":"Киев  Большая Житомирска  дом 8/А", "title":"2345753;  Гришко Іі", "lat":50.455564, "lng":30.516243},
{"address":"Киев  Большая Житомирска  дом 17", "title":"2723996;  Брей Но", "lat":50.4501, "lng":30.5234},
{"address":"Киев  Большая Китаевская  дом 6", "title":"5249321;  Решетніков Бб", "lat":50.401653, "lng":30.530038},
{"address":"Киев  Бориспольская Ул.  дом 12", "title":"5667032;  Вінаров Гс", "lat":50.427397, "lng":30.670211},
{"address":"Киев  Бориспольская Ул.  дом 34", "title":"5683175;  Архипенко Ті", "lat":50.423908, "lng":30.687251},
{"address":"Киев  Бориспольская Ул.  дом 36", "title":"5678785;  Козлітін Оф", "lat":50.423041, "lng":30.686859},
{"address":"Киев  Братиславская Ул.  дом 12", "title":"5447411;  Садовнікова Тя", "lat":50.465666, "lng":30.627679},
{"address":"Киев  Братиславская Ул.  дом 26", "title":"5440758;  Кривошей Мi", "lat":50.47105699999999, "lng":30.624096},
{"address":"Киев  Братиславская Ул.  дом 36", "title":"5189355;  Чупахін Юо", "lat":50.474232, "lng":30.621932},
{"address":"Киев  Бучмы А. Б-Р  дом 1", "title":"5539379;  Катерініч Ос", "lat":50.43293, "lng":30.603671},
{"address":"Киев  Быкова Л. Б-Р  дом 6", "title":"5323664;  Ларичева Фм", "lat":50.5180419, "lng":30.6240115},
{"address":"Киев  В  В", "title":"5666095;  Ялугін М", "lat":50.4501, "lng":30.5234},
{"address":"Киев  Василевской В. Ул.  дом 10", "title":"2436025;  Качура Ос", "lat":50.453698, "lng":30.470246},
{"address":"Киев  Василенко Н. Ул.  дом 11/А", "title":"4973658;  Васильєва Пп", "lat":50.445479, "lng":30.42293},
{"address":"Киев  Васильковская Ул.  дом 47/3", "title":"2599901;  Олійник На", "lat":50.396033, "lng":30.5061647},
{"address":"Киев  Васильковская Ул.  дом 53/1", "title":"2587963;  Онищенко Аю", "lat":50.3965639, "lng":30.50811049999999},
{"address":"Киев  Ватутина Генерала П  дом 6", "title":"5425694;  Івахненко Юо", "lat":50.494701, "lng":30.57933299999999},
{"address":"Киев  Ватутина Генерала П  дом 8/А", "title":"5401453;  Захарченко См", "lat":50.493976, "lng":30.580743},
{"address":"Киев  Ватутина Генерала П  дом 22", "title":"5107719;  Морозова Та", "lat":50.494412, "lng":30.59234},
{"address":"Киев  Ватутина Генерала П  дом 24/В", "title":"5103041;  Довгаленко Ті", "lat":50.492614, "lng":30.595874},
{"address":"Киев  Ватутина Генерала П  дом 26", "title":"5103283;  Кузьменко Тс", "lat":50.4944973, "lng":30.6025243},
{"address":"Киев  Ватутина Генерала П  дом 28/А", "title":"5101475;  Суховерська Оі", "lat":50.493788, "lng":30.600773},
{"address":"Киев  Ватутина Генерала П  дом 30", "title":"5100770;  Кочубей Нл", "lat":50.494066, "lng":30.604936},
{"address":"Киев  Вербицкого Архитек  дом 9/Г", "title":"5640717;  Чудайкін Ог", "lat":50.4501, "lng":30.5234},
{"address":"Киев  Вербицкого Архитек  дом 12", "title":"5625054;  Кущ Ас", "lat":50.4501, "lng":30.5234},
{"address":"Киев  Вербицкого Архитек  дом 17/Г", "title":"5642422;  Козирьова Лв", "lat":50.4501, "lng":30.5234},
{"address":"Киев  Вербицкого Архитек  дом 19", "title":"5608238;  Насибуліна Лм", "lat":50.4501, "lng":30.5234},
{"address":"Киев  Вербицкого Архитек  дом 19/Б", "title":"5641982;  Михайлик Тс", "lat":50.4501, "lng":30.5234},
{"address":"Киев  Вернадского Академ  дом 38/А", "title":"4243216;  Сктб З Ев Iзнх Нан Укр. Спец.конструктор.-Технолог.бюро З Експерим.виробництвом Iн", "lat":50.467251, "lng":30.360048},
{"address":"Киев  Вернадского Академ  дом 59/1", "title":"4247623;  Скворцов Ам", "lat":50.463472, "lng":30.370333},
{"address":"Киев  Вернадского Академ  дом 71", "title":"4503637;  Томащук Мк", "lat":50.464723, "lng":30.365859},
{"address":"Киев  Вернадского Академ  дом 75/А", "title":"4503363;  Ковпак Мк", "lat":50.46500899999999, "lng":30.363643},
{"address":"Киев  Верхняя Ул.  дом 5", "title":"2546878;  Полiклiнiка N1 Державного Управлiння Справами Полiклiнiка N1 Державного Управлiння Справам", "lat":50.422836, "lng":30.551038},
{"address":"Киев  Верховинная Ул.  дом 85", "title":"4511722;  Літвінова Єй", "lat":50.451225, "lng":30.354838},
{"address":"Киев  Верховинная Ул.  дом 91", "title":"4231431;  Данильченко Мл", "lat":50.45101, "lng":30.351362},
{"address":"Киев  Верховинца В. Ул.  дом 10", "title":"4070128;  Тульська Лв", "lat":50.434769, "lng":30.395565},
{"address":"Киев  Верховной Рады Б-Р  дом 22/А", "title":"2961084;  Репецька Вм", "lat":50.4501, "lng":30.5234},
{"address":"Киев  Вершигоры П. Ул.  дом 5/А", "title":"5400932;  Благодарний Iо", "lat":50.492024, "lng":30.57710299999999},
{"address":"Киев  Вершигоры П. Ул.  дом 5/А", "title":"5406298;  Бухало Мi", "lat":50.492024, "lng":30.57710299999999},
{"address":"Киев  Ветряные Горы Ул.  дом 4/А", "title":"4331866;  Ковальчук Гв", "lat":50.511805, "lng":30.442271},
{"address":"Киев  Вигуровский Б-Р  дом 5", "title":"5306901;  Фурс Пг", "lat":50.517813, "lng":30.612576},
{"address":"Киев  Вишняковская Ул.  дом 3", "title":"5771034;  Ламонов Пв", "lat":50.393597, "lng":30.651227},
{"address":"Киев  Вишняковская Ул.  дом 5", "title":"5751906;  Хмельницька Ів", "lat":50.39390299999999, "lng":30.650267},
{"address":"Киев  Вишняковская Ул.  дом 8/А", "title":"5659437;  Бреус Тв", "lat":50.396073, "lng":30.648686},
{"address":"Киев  Вишняковская Ул.  дом 9", "title":"5772176;  Алєксєєва Гi", "lat":50.394338, "lng":30.649323},
{"address":"Киев  Вишняковская Ул.  дом 13/В", "title":"5772362;  Довженко Ом", "lat":50.393108, "lng":30.646343},
{"address":"Киев  Воздухофлотский Пр-  дом 40", "title":"2494765;  Солом`янська Районна В М.києві Державна Адміністрація Солом`янська Районна В М.києві Держа", "lat":50.4273, "lng":30.462629},
{"address":"Киев  Волго-Донской Пер.  дом 2", "title":"5765160;  Литвинчук Мi", "lat":50.4248005, "lng":30.6669646},
{"address":"Киев  Волкова Космонавта  дом 4", "title":"5191259;  Смірнов Мо", "lat":50.487952, "lng":30.62812},
{"address":"Киев  Волкова Космонавта  дом 12", "title":"5190109;  Трошечко Лд", "lat":50.48818499999999, "lng":30.635091},
{"address":"Киев  Волынская Ул.  дом 2", "title":"2428747;  Костенко Вм", "lat":50.433841, "lng":30.453244},
{"address":"Киев  Воссоединения Пр-Т  дом 1", "title":"2960981;  Ященко Та", "lat":50.441098, "lng":30.623247},
{"address":"Киев  Воссоединения Пр-Т  дом 13/А", "title":"5597440;  Красинский Вб", "lat":50.43859, "lng":30.617315},
{"address":"Киев  Выборгская Ул.  дом 32", "title":"4576739;  Богданова Сс", "lat":50.448501, "lng":30.445252},
{"address":"Киев  Выборгская Ул.  дом 70", "title":"4576541;  Спд Лабзюк С.i. Суб``єкт Пiдприємницької Дiяльностi Лабзюк Сергiй Iванович", "lat":50.449928, "lng":30.438335},
{"address":"Киев  Высоцкого В. Б-Р  дом 6", "title":"5328801;  Кузьменко Сп", "lat":50.513816, "lng":30.621046},
{"address":"Киев  Вышгородская Ул.  дом 30", "title":"4303365;  Хоменко Оа", "lat":50.5066344, "lng":30.4521577},
{"address":"Киев  Вышгородская Ул.  дом 46/Б", "title":"4305658;  Ровінська Ра", "lat":50.515128, "lng":30.451658},
{"address":"Киев  Вышгородская Ул.  дом 69", "title":"4301036;  Інститут Ендокринології Та Обміну Речовин Ім.в.п.комісаренка Інститут Ендокринології Та Об", "lat":50.520235, "lng":30.448459},
{"address":"Киев  Гавро Л. Ул.  дом 1/А", "title":"4195236;  Костик Мв", "lat":50.491726, "lng":30.506495},
{"address":"Киев  Гавро Л. Ул.  дом 7", "title":"4198770;  Суслакова Лп", "lat":50.49433399999999, "lng":30.506706},
{"address":"Киев  Гавро Л. Ул.  дом 9", "title":"4197890;  Лєбєдєва Нн", "lat":50.4959783, "lng":30.5067641},
{"address":"Киев  Гавро Л. Ул.  дом 9/К", "title":"4267769;  Борисова Лi", "lat":50.495994, "lng":30.504417},
{"address":"Киев  Гавро Л. Ул.  дом 24", "title":"4197515;  Віленський Ок", "lat":50.49952, "lng":30.505573},
{"address":"Киев  Галицкая Ул.  дом 7/А", "title":"4606045;  Татарчук Дм", "lat":50.50888399999999, "lng":30.437886},
{"address":"Киев  Галицкая Ул.  дом 11", "title":"4674095;  Рибачук Мс", "lat":50.5086102, "lng":30.4366888},
{"address":"Киев  Гарматная Ул.  дом 39/В", "title":"4975771;  Косенко Гп", "lat":50.442327, "lng":30.432052},
{"address":"Киев  Героев Днепра Ул.  дом 19", "title":"4121952;  Зозуля Гі", "lat":50.52085899999999, "lng":30.491039},
{"address":"Киев  Героев Днепра Ул.  дом 25", "title":"4261189;  Бакалінська Мг", "lat":50.521693, "lng":30.490126},
{"address":"Киев  Героев Днепра Ул.  дом 32", "title":"4112597;  Усанова Вс", "lat":50.51994149999999, "lng":30.5023813},
{"address":"Киев  Героев Днепра Ул.  дом 47", "title":"4678753;  Артюх Во", "lat":50.5241358, "lng":30.5045509},
{"address":"Киев  Героев Обороны Ул.  дом 7", "title":"2586642;  Кифоренко Вi", "lat":50.38341699999999, "lng":30.489035},
{"address":"Киев  Героев Севастополя  дом 23", "title":"4978789;  Гаченко Кс", "lat":50.43718, "lng":30.42043},
{"address":"Киев  Героев Севастополя  дом 36/1", "title":"4084819;  Кесарицький Ва", "lat":50.43138, "lng":30.422492},
{"address":"Киев  Героев Сталинграда  дом 9", "title":"4182912;  Доронина То", "lat":50.498914, "lng":30.514497},
{"address":"Киев  Героев Сталинграда  дом 15/А", "title":"4182168;  Гоцюк Пм", "lat":50.5026, "lng":30.510832},
{"address":"Киев  Героев Сталинграда  дом 43/Б", "title":"4132475;  Демченко Гi", "lat":50.516762, "lng":30.507235},
{"address":"Киев  Героев Сталинграда  дом 54", "title":"4131083;  Павленко Тл", "lat":50.524133, "lng":30.51605499999999},
{"address":"Киев  Героев Сталинграда  дом 58/А", "title":"4141408;  Гайдамака Пт", "lat":50.525667, "lng":30.517899},
{"address":"Киев  Героев Сталинграда  дом 58/А", "title":"4141400;  Петрова Нм", "lat":50.525667, "lng":30.517899},
{"address":"Киев  Героев Сталинграда  дом 63", "title":"4112705;  Гутник Вв", "lat":50.525513, "lng":30.515858},
{"address":"Киев  Герцена Ул.  дом 9", "title":"4430411;  Шевченкiвське Ру Гу Мвс України В М.києві Шевченкiвське Ру Гу Мвс України В М.києві", "lat":50.46949799999999, "lng":30.471715},
{"address":"Киев  Глушкова Академика  дом 15", "title":"5264202;  Британь Аа", "lat":50.366864, "lng":30.457184},
{"address":"Киев  Гмыри Б. Ул.  дом 9/Б", "title":"5729662;  Королюк Тв", "lat":50.392699, "lng":30.630691},
{"address":"Киев  Головко А. Ул.  дом 4", "title":"2757648;  Сергійчук Оп", "lat":50.420973, "lng":30.481759},
{"address":"Киев  Гончара О. Ул.  дом 62", "title":"4866968;  Онищенко Ад", "lat":50.449731, "lng":30.500563},
{"address":"Киев  Горловская Ул.  дом 124/1", "title":"5760428;  Терещук Вб", "lat":50.412434, "lng":30.661195},
{"address":"Киев  Грекова Академика У  дом 3/2", "title":"4409793;  Цесаренко Ог", "lat":50.47352799999999, "lng":30.44253},
{"address":"Киев  Гречко Маршала Ул.  дом 11", "title":"4436584;  Приходько Нi", "lat":50.492537, "lng":30.405148},
{"address":"Киев  Гречко Маршала Ул.  дом 18/Б", "title":"4494190;  Солоєд Тв", "lat":50.489722, "lng":30.408018},
{"address":"Киев  Григоренко Пр-Т  дом 3/В", "title":"5722747;  Алейнікова Ов", "lat":50.413258, "lng":30.629864},
{"address":"Киев  Григоровича-Барско  дом 3", "title":"4028018;  Козачук Аа", "lat":50.41045, "lng":30.392553},
{"address":"Киев  Гришко М. Ул.  дом 10", "title":"5770691;  Оленська Кт", "lat":50.394889, "lng":30.632702},
{"address":"Киев  Грушевского Ул.  дом 12/2", "title":"2567149;  Упр-Ня Адмiн. Будинкiв Гфд Скм України Управлiння Адмiнiстративних Будинкiв Господарсько-Ф", "lat":50.447967, "lng":30.533414},
{"address":"Киев  Грушевского Ул.  дом 12/2", "title":"2536145;  Міністерство Фінансів України Міністерство Фінансів України", "lat":50.447967, "lng":30.533414},
{"address":"Киев  Грушевского Ул.  дом 26/1", "title":"2530251;  готель київ Готель київ", "lat":50.445863, "lng":30.538008},
{"address":"Киев  Давыдова А. Б-Р  дом 4", "title":"5557346;  Комендантова См", "lat":50.435859, "lng":30.599014},
{"address":"Киев  Давыдова А. Б-Р  дом 7", "title":"5552468;  Шестакова Ов", "lat":50.437243, "lng":30.596615},
{"address":"Киев  Давыдова А. Б-Р  дом 10", "title":"5550101;  Дешко Оi", "lat":50.437424, "lng":30.597864},
{"address":"Киев  Давыдова А. Б-Р  дом 19", "title":"5175628;  Судакова См", "lat":50.442512, "lng":30.597595},
{"address":"Киев  Давыдова А. Б-Р  дом 19", "title":"5174674;  Кузьменко Бп", "lat":50.442512, "lng":30.597595},
{"address":"Киев  Давыдова А. Б-Р  дом 20/1", "title":"5553957;  Мішалов Мм", "lat":50.442093, "lng":30.599321},
{"address":"Киев  Данькевича К. Ул.  дом 15", "title":"5337183;  Целовальнікова Вм", "lat":50.520794, "lng":30.612877},
{"address":"Киев  Двинская Ул.  дом 1/А", "title":"5741959;  Ісаєва Ов", "lat":50.43505, "lng":30.643782},
{"address":"Киев  Двинская Ул.  дом 19", "title":"5742334;  Цимбаленко Пп", "lat":50.432213, "lng":30.637348},
{"address":"Киев  Дегтяревская Ул.  дом 25", "title":"2118154;  Київська Мiська Дезинфекцiйна Станцiя Київська Мiська Дезинфекцiйна Станцiя", "lat":50.46241999999999, "lng":30.456349},
{"address":"Киев  Дегтяревская Ул.  дом 30/В", "title":"4893025;  Евдошук Мi", "lat":50.46350100000001, "lng":30.470514},
{"address":"Киев  Декабристов Ул.  дом 9", "title":"5606703;  Мельник Мс", "lat":50.403853, "lng":30.654994},
{"address":"Киев  Делегатский Пер.  дом 2/18", "title":"4890394;  Сапожнікова Юс", "lat":50.47232899999999, "lng":30.476205},
{"address":"Киев  Демеевская Ул.  дом 35", "title":"2587986;  Бородавко Мг", "lat":50.401779, "lng":30.509645},
{"address":"Киев  Демеевская Ул.  дом 37", "title":"2588126;  Осіпов Ва", "lat":50.401174, "lng":30.509169},
{"address":"Киев  Днепровская Наб.  дом 11/А", "title":"5505340;  Немилостивий Ам", "lat":50.4235068, "lng":30.5951539},
{"address":"Киев  Доброхотова Академ  дом 3", "title":"4241323;  Зульфигаров Ос", "lat":50.462233, "lng":30.36819},
{"address":"Киев  Доброхотова Академ  дом 26", "title":"4242069;  Романенко Аi", "lat":50.462507, "lng":30.359357},
{"address":"Киев  Довнар-Запольского  дом 4/Б", "title":"2411560;  Минюк Вб", "lat":50.458579, "lng":30.476068},
{"address":"Киев  Донца М. Ул.  дом 12", "title":"4041152;  Тюрменко Вi", "lat":50.428916, "lng":30.425473},
{"address":"Киев  Донца М. Ул.  дом 27", "title":"4976345;  Ярошенко Ап", "lat":50.423365, "lng":30.4228},
{"address":"Киев  Донца М. Ул.  дом 28", "title":"4551469;  Сидоренко Юп", "lat":50.423194, "lng":30.421748},
{"address":"Киев  Драгоманова Ул.  дом 11", "title":"5707732;  Сирош Нс", "lat":50.413444, "lng":30.637626},
{"address":"Киев  Драгоманова Ул.  дом 13/10", "title":"5652907;  Закієва Ср", "lat":50.412112, "lng":30.638464},
{"address":"Киев  Драгоманова Ул.  дом 18", "title":"5701386;  Катан Гс", "lat":50.407819, "lng":30.638624},
{"address":"Киев  Драгоманова Ул.  дом 44/А", "title":"5725628;  Виноградов Єі", "lat":50.402977, "lng":30.635306},
{"address":"Киев  Драйзера Т. Ул.  дом 2/А", "title":"5463507;  Погибенко Ов", "lat":50.50120099999999, "lng":30.606797},
{"address":"Киев  Драйзера Т. Ул.  дом 9", "title":"5340124;  Дацук Нм", "lat":50.501862, "lng":30.602835},
{"address":"Киев  Драйзера Т. Ул.  дом 30/А", "title":"5471950;  Шпурик Ао", "lat":50.510202, "lng":30.599274},
{"address":"Киев  Дружбы Народов Б-Р  дом 4/6", "title":"5295488;  Чекрижов Юа", "lat":50.411325, "lng":30.530178},
{"address":"Киев  Дружбы Народов Б-Р  дом 8", "title":"5297740;  Сербіна Тв", "lat":50.412306, "lng":30.532967},
{"address":"Киев  Дружбы Народов Б-Р  дом 26/1", "title":"5229497;  Погожева Нг", "lat":50.4116958, "lng":30.5274859},
{"address":"Киев  Дружбы Народов Пл.  дом 5", "title":"4100535;  Мотненко Ам", "lat":50.50145440000001, "lng":30.5013833},
{"address":"Киев  Дубового И. Ул.  дом 45", "title":"5547752;  Максимец Ов", "lat":50.44829499999999, "lng":30.612739},
{"address":"Киев  Дубровицкая Ул.  дом 5", "title":"4324441;  Магдик Гє", "lat":50.51270299999999, "lng":30.453551},
{"address":"Киев  Ереванская Ул.  дом 10/А", "title":"2423228;  Тимошенко Мм", "lat":50.43496, "lng":30.458865},
{"address":"Киев  Желудева Ул.  дом 4/Б", "title":"4023343;  Дмитров Iм", "lat":50.415203, "lng":30.397111},
{"address":"Киев  Желудева Ул.  дом 4/Б", "title":"4023346;  Проценко Вi", "lat":50.415203, "lng":30.397111},
{"address":"Киев  Желудева Ул.  дом 8/А", "title":"4535080;  Добродєєва Ло", "lat":50.416854, "lng":30.399267},
{"address":"Киев  Жилянская Ул.  дом 37/97", "title":"2892317;  Сп Тов  Спiльне Укр.-Австрiйське Пiд-Во У Формi Тов-Ва З Обмежен.в", "lat":50.433845, "lng":30.5087},
{"address":"Киев  Жмеринская Ул.  дом 36", "title":"4032809;  Дудко Вi", "lat":50.44054300000001, "lng":30.382571},
{"address":"Киев  Жукова Маршала Ул.  дом 21/А", "title":"5445701;  Гресько Ов", "lat":50.472006, "lng":30.638593},
{"address":"Киев  Жукова Маршала Ул.  дом 28", "title":"5196719;  Пацерук Сф", "lat":50.486467, "lng":30.633256},
{"address":"Киев  Жукова Маршала Ул.  дом 35/24", "title":"5181865;  Руденко Вн", "lat":50.478295, "lng":30.636591},
{"address":"Киев  Жукова Маршала Ул.  дом 45", "title":"5182295;  Кравченко Iв", "lat":50.484633, "lng":30.632197},
{"address":"Киев  Жукова Маршала Ул.  дом 49", "title":"5197127;  Бондаренко Пм", "lat":50.485974, "lng":30.630346},
{"address":"Киев  Жукова Маршала Ул.  дом 51", "title":"5196537;  Кузьменко Гф", "lat":50.486487, "lng":30.630005},
{"address":"Киев  Жуковского В. Пер.  дом 4", "title":"2574588;  Козаченко Ап", "lat":50.390178, "lng":30.496056},
{"address":"Киев  Заболотного Академ  дом 60", "title":"5222415;  Фотчук Нф", "lat":50.4501, "lng":30.5234},
{"address":"Киев  Закревского Н. Ул.  дом 13/А", "title":"5459557;  спд Череда Г.в. Субєкт Пiдприємницької Дiяльностi-Фiзична Особа Череда Гр", "lat":50.499205, "lng":30.597816},
{"address":"Киев  Закревского Н. Ул.  дом 13/А", "title":"5157120;  Тельнов Вм", "lat":50.499205, "lng":30.597816},
{"address":"Киев  Закревского Н. Ул.  дом 19", "title":"5157357;  Борода Вп", "lat":50.498333, "lng":30.602448},
{"address":"Киев  Закревского Н. Ул.  дом 27/2", "title":"5464528;  Бойко Ма", "lat":50.500544, "lng":30.608964},
{"address":"Киев  Закревского Н. Ул.  дом 63/А", "title":"5303196;  Мититянов Юм", "lat":50.514647, "lng":30.623015},
{"address":"Киев  Закревского Н. Ул.  дом 71", "title":"5300732;  Пакета Вп", "lat":50.516278, "lng":30.625123},
{"address":"Киев  Залки М. Ул.  дом 4/А", "title":"4186742;  Клименко Юя", "lat":50.494576, "lng":30.510332},
{"address":"Киев  Залки М. Ул.  дом 8/А", "title":"4184544;  Губарь Оо", "lat":50.494573, "lng":30.513324},
{"address":"Киев  Запорожца П. Ул.  дом 8/В", "title":"5408610;  Гаврилюк Мс", "lat":50.476638, "lng":30.59879},
{"address":"Киев  Запорожца П. Ул.  дом 26", "title":"5128034;  Київський Мiський Пологовий Будинок N 6 Київський Мiський Пологовий Будинок N 6", "lat":50.477293, "lng":30.6020924},
{"address":"Киев  Захаровская Ул.  дом 7", "title":"4686568;  Шевчук Ам", "lat":50.486045, "lng":30.465684},
{"address":"Киев  Зодчих Ул.  дом 8", "title":"4015030;  Демчук Нi", "lat":50.414656, "lng":30.384093},
{"address":"Киев  Зодчих Ул.  дом 38", "title":"2747875;  Козловський Вв", "lat":50.4234893, "lng":30.3705473},
{"address":"Киев  Зодчих Ул.  дом 38", "title":"4052339;  Чугай Ою", "lat":50.4234893, "lng":30.3705473},
{"address":"Киев  Иванова А. Ул.  дом 12", "title":"2542543;  Мучник Мм", "lat":50.43953399999999, "lng":30.547113},
{"address":"Киев  Ивашкевича Я. Ул.  дом 5", "title":"4307372;  Кальницький Сі", "lat":50.505542, "lng":30.456094},
{"address":"Киев  Ивашкевича Я. Ул.  дом 8", "title":"4639074;  Міроненко Ок", "lat":50.504297, "lng":30.453814},
{"address":"Киев  Ижакевича И. Ул.  дом 5/9", "title":"4331936;  Слобоженко Лі", "lat":50.4501, "lng":30.5234},
{"address":"Киев  Ильича Ул.  дом 21", "title":"5664534;  Макаренко Аі", "lat":50.424483, "lng":30.652112},
{"address":"Киев  Институтская Ул.  дом 9", "title":"4172171;  Нбу Головне Управлiння Нбу По Києву I Київськiй Областi Нацiональний Банк України Головне", "lat":50.4472889, "lng":30.5307414},
{"address":"Киев  Ирпенская Ул.  дом 62", "title":"4529042;  Снигир Мi", "lat":50.4605896, "lng":30.3547794},
{"address":"Киев  Ирпенская Ул.  дом 68", "title":"4232861;  Добренко Аг", "lat":50.460814, "lng":30.350384},
{"address":"Киев  Искровская Ул.  дом 5/А", "title":"2411375;  Солом. Районний У М. Києвi Вiйськовий Комiсарiат Солом`янський Районний У М. Києвi Вiйсько", "lat":50.437011, "lng":30.456218},
{"address":"Киев  Искровская Ул.  дом 6", "title":"2420454;  Бєляєв Ао", "lat":50.437172, "lng":30.458066},
{"address":"Киев  Кавказская Ул.  дом 9", "title":"2485287;  Зелененький Вм", "lat":50.431497, "lng":30.480975},
{"address":"Киев  Казанская Ул.  дом 18", "title":"4641687;  Казанцева Св", "lat":50.498186, "lng":30.4578379},
{"address":"Киев  Карпатская Ул.  дом 11", "title":"4976867;  Полежако Па", "lat":50.433996, "lng":30.439453},
{"address":"Киев  Картвелишвили Ул.  дом 3/В", "title":"2748627;  Гордієнко То", "lat":50.42781, "lng":30.388467},
{"address":"Киев  Картвелишвили Ул.  дом 9", "title":"2767414;  Собко Во", "lat":50.423016, "lng":30.38396299999999},
{"address":"Киев  Касияна В. Ул.  дом 6", "title":"2501990;  Коробенко Нп", "lat":50.377213, "lng":30.45527199999999},
{"address":"Киев  Каштанова Ул.  дом 8/А", "title":"5156671;  Жукова Лт", "lat":50.50312899999999, "lng":30.5843066},
{"address":"Киев  Каштанова Ул.  дом 14", "title":"5344731;  Філіна Тв", "lat":50.504967, "lng":30.584744},
{"address":"Киев  Кибальчича Н. Ул.  дом 3/Б", "title":"5128378;  Руммо Лм", "lat":50.491912, "lng":30.594206},
{"address":"Киев  Кибальчича Н. Ул.  дом 5/А", "title":"5101567;  Коваленко Пф", "lat":50.492006, "lng":30.595704},
{"address":"Киев  Киквидзе Ул.  дом 34", "title":"2851273;  Хохлова Оi", "lat":50.407753, "lng":30.551564},
{"address":"Киев  Киото Ул.  дом 5", "title":"5442811;  Путіліна Зп", "lat":50.463755, "lng":30.632056},
{"address":"Киев  Киото Ул.  дом 15", "title":"5447750;  Погребна Аi", "lat":50.464334, "lng":30.635535},
{"address":"Киев  Киото Ул.  дом 19", "title":"5314940;  Київ.національний Торгівельно-Економічний Університет Київ.національний Торгівельно-Економ", "lat":50.46544799999999, "lng":30.637836},
{"address":"Киев  Киото Ул.  дом 19", "title":"5314725;  Київ.національний Торгівельно-Економічний Університет Київ.національний Торгівельно-Економ", "lat":50.46544799999999, "lng":30.637836},
{"address":"Киев  Клавдиевская Ул.  дом 23/15", "title":"4231440;  Буркало Лi", "lat":50.477735, "lng":30.344941},
{"address":"Киев  Клименко И. Ул.  дом 5/2", "title":"2493904;  Ндi Будiвельних Конструкцiй Науково-Дослiдний Iнститут Будiвельних Конструкцiй", "lat":50.425957, "lng":30.471457},
{"address":"Киев  Клименко И. Ул.  дом 5/2", "title":"2497241;  Ндi Будiвельних Конструкцiй Науково-Дослiдний Iнститут Будiвельних Конструкцiй", "lat":50.425957, "lng":30.471457},
{"address":"Киев  Клименко И. Ул.  дом 5/2", "title":"2493706;  Ндi Будiвельних Конструкцiй Науково-Дослiдний Iнститут Будiвельних Конструкцiй", "lat":50.425957, "lng":30.471457},
{"address":"Киев  Клименко И. Ул.  дом 16", "title":"2700615;  Ососков Мi", "lat":50.422757, "lng":30.47504899999999},
{"address":"Киев  Клименко И. Ул.  дом 25", "title":"2449358;  дiпроверф Дпi дiпроверф Державний Проектний Iнститут", "lat":50.421926, "lng":30.477128},
{"address":"Киев  Кловский Спуск  дом 12/А", "title":"5922982;  тов Сп iнтернешенел Телеком'юнiкешен Компанi Спiльне Пiдприємство У Формi Товариства", "lat":50.438798, "lng":30.537516},
{"address":"Киев  Кловский Спуск  дом 24", "title":"2804983;  Філіппов Пi", "lat":50.436006, "lng":30.543167},
{"address":"Киев  Княжий Затон Ул.  дом 11", "title":"5726603;  Топчій Мє", "lat":50.40149, "lng":30.623551},
{"address":"Киев  Коласа Я. Ул.  дом 11", "title":"4032559;  Жулай Вє", "lat":50.435781, "lng":30.376653},
{"address":"Киев  Коласа Я. Ул.  дом 11", "title":"4035751;  Пионтковська Ао", "lat":50.435781, "lng":30.376653},
{"address":"Киев  Коласа Я. Ул.  дом 21", "title":"4074619;  Новицький Мi", "lat":50.43711700000001, "lng":30.378788},
{"address":"Киев  Коллекторная Ул.  дом 24/26", "title":"5612194;  казенний Завод радiовимiрювач Казенний Завод радiовимiрювач", "lat":50.400246, "lng":30.677287},
{"address":"Киев  Кольцова Б-Р  дом 3", "title":"4054558;  Скобицький Мя", "lat":50.417329, "lng":30.38626},
{"address":"Киев  Кольцова Б-Р  дом 13/А", "title":"4053882;  Петрошенко Ов", "lat":50.419812, "lng":30.381165},
{"address":"Киев  Коперника Ул.  дом 16", "title":"2389078;  Гавриш Вп", "lat":50.457074, "lng":30.475984},
{"address":"Киев  Коперника Ул.  дом 25", "title":"2435796;  укртехнопринт Пп Приватне Пiдприємство укртехнопринт", "lat":50.457027, "lng":30.477936},
{"address":"Киев  Копыловская Ул.  дом 12/А", "title":"4685754;  Сіренко Лм", "lat":50.489529, "lng":30.465106},
{"address":"Киев  Копыловская Ул.  дом 12/А", "title":"4680867;  Мануїлова Гв", "lat":50.489529, "lng":30.465106},
{"address":"Киев  Королева Академика  дом 8", "title":"4029512;  Щербатенко Мг", "lat":50.41532600000001, "lng":30.403271},
{"address":"Киев  Косенко Ул.  дом 61", "title":"4633159;  Осадча Ом", "lat":50.518657, "lng":30.426365},
{"address":"Киев  Костельная Ул.  дом 6", "title":"2786017;  Кравчук Оо", "lat":50.451988, "lng":30.52406},
{"address":"Киев  Котельникова М. Ул.  дом 51/А", "title":"4504029;  Фесан Лi", "lat":50.451156, "lng":30.367702},
{"address":"Киев  Коцюбинского М. Ул.  дом 6", "title":"2347913;  Лущик Во", "lat":50.385833, "lng":30.691142},
{"address":"Киев  Коцюбинского Ю. Ул.  дом 7", "title":"4863637;  Тертична Аi", "lat":50.38540099999999, "lng":30.690581},
{"address":"Киев  Кошица А. Ул.  дом 9", "title":"5707827;  Ухарська Оа", "lat":50.405524, "lng":30.641596},
{"address":"Киев  Кошица А. Ул.  дом 9", "title":"5705354;  Богдан Ів", "lat":50.405524, "lng":30.641596},
{"address":"Киев  Красноармейская Ул.  дом 63", "title":"4281365;  п.п. паллада Привитне Пiдприємствопаллада", "lat":50.430704, "lng":30.517029},
{"address":"Киев  Красноармейская Ул.  дом 68", "title":"2877868;  Лиманська Лг", "lat":50.432629, "lng":30.515653},
{"address":"Киев  Красноармейская Ул.  дом 139", "title":"5287505;  тролейбусне Ремонтно-Експлуатацiйне Депо N1 Кп київпастранс Тролейбусне Ремонтно-Експ", "lat":50.414412, "lng":30.525132},
{"address":"Киев  Краснозвездный Пр-Т  дом 5", "title":"2498160;  Прокопчук Ав", "lat":50.424768, "lng":30.462289},
{"address":"Киев  Краснопартизанская  дом 14/А", "title":"2700580;  Абакумов Iм", "lat":50.422942, "lng":30.470901},
{"address":"Киев  Краснопартизанская  дом 21", "title":"2496607;  Харабуга Єм", "lat":50.423127, "lng":30.47195499999999},
{"address":"Киев  Краснопольская Ул.  дом 21", "title":"4349064;  Бойко Мк", "lat":50.51272100000001, "lng":30.43393499999999},
{"address":"Киев  Красноткацкая Ул.  дом 27/2", "title":"5732409;  Дімітрова Вi", "lat":50.44893399999999, "lng":30.610834},
{"address":"Киев  Крещатик Ул.  дом 15", "title":"2787891;  Гомаз Вв", "lat":50.4473127, "lng":30.5257516},
{"address":"Киев  Крещатик Ул.  дом 25", "title":"2786947;  Гавяз Мі", "lat":50.444477, "lng":30.522792},
{"address":"Киев  Крещатик Ул.  дом 26", "title":"2793768;  Київська Державна Регiональна Телерадiокомпанiя Київська Державна Регiональна Телерадiоком", "lat":50.448867, "lng":30.521582},
{"address":"Киев  Крещатик Ул.  дом 26", "title":"2793724;  Нацiональна Радiокомпанiя України Нацiональна Радiокомпанiя України", "lat":50.448867, "lng":30.521582},
{"address":"Киев  Круглоуниверситетс  дом 14", "title":"2530874;  Жильцова Лв", "lat":50.4501, "lng":30.5234},
{"address":"Киев  Кудри И. Ул.  дом 35/Б", "title":"2854375;  Романенко Па", "lat":50.419837, "lng":30.538903},
{"address":"Киев  Кудри И. Ул.  дом 38/Б", "title":"2853911;  Ільченко Аа", "lat":50.42048, "lng":30.54246599999999},
{"address":"Киев  Кудряшова Ул.  дом 7", "title":"2450255;  Лашун Кв", "lat":50.431583, "lng":30.48852399999999},
{"address":"Киев  Кулибина Ул.  дом 4/2", "title":"4222980;  Волинський Мб", "lat":50.4577947, "lng":30.3991657},
{"address":"Киев  Курнатовского Ул.  дом 3", "title":"5409852;  Будз Вс", "lat":50.480822, "lng":30.604816},
{"address":"Киев  Курнатовского Ул.  дом 4", "title":"5109412;  Сенчик Оi", "lat":50.48236499999999, "lng":30.605604},
{"address":"Киев  Курнатовского Ул.  дом 22", "title":"5128330;  Волкова Вм", "lat":50.487388, "lng":30.60307499999999},
{"address":"Киев  Курская Ул.  дом 3", "title":"4280669;  Єгер Iг", "lat":50.434912, "lng":30.470893},
{"address":"Киев  Курская Ул.  дом 14", "title":"2424752;  Шамков Ве", "lat":50.438895, "lng":30.46731699999999},
{"address":"Киев  Курчатова Академик  дом 6", "title":"5182509;  Янишевська Нп", "lat":50.474833, "lng":30.623399},
{"address":"Киев  Курчатова Академик  дом 20", "title":"5184869;  Філіппов Аа", "lat":50.478027, "lng":30.634918},
{"address":"Киев  Кустанайская Ул.  дом 8/2", "title":"2643132;  Коротков Бт", "lat":50.404574, "lng":30.50587},
{"address":"Киев  Кучера В. Ул.  дом 8", "title":"2769719;  Слюсарь Нг", "lat":50.421475, "lng":30.384901},
{"address":"Киев  Кучера В. Ул.  дом 8", "title":"4054866;  Костенко Iд", "lat":50.421475, "lng":30.384901},
{"address":"Киев  Лебедева-Кумача Ул.  дом 28/А", "title":"4573616;  Юхименко Оз", "lat":50.43929499999999, "lng":30.437213},
{"address":"Киев  Леваневского Ул.  дом 33/35", "title":"4530593;  Федотов Ос", "lat":50.4413978, "lng":30.4372109},
{"address":"Киев  Лепсе И. Б-Р  дом 21/В-00", "title":"4552837;  Жук Пi", "lat":50.443717, "lng":30.418773},
{"address":"Киев  Лепсе И. Б-Р  дом 53", "title":"4085417;  Гордієнко Сi", "lat":50.437678, "lng":30.410987},
{"address":"Киев  Лепсе И. Б-Р  дом 77", "title":"4041543;  Юрченко Ам", "lat":50.428828, "lng":30.416722},
{"address":"Киев  Лепсе И. Б-Р  дом 79/А", "title":"4085275;  Побеляцький Тс", "lat":50.427875, "lng":30.418364},
{"address":"Киев  Лепсе И. Б-Р  дом 79/Д", "title":"4044314;  Обухова Лп", "lat":50.42845, "lng":30.419445},
{"address":"Киев  Лепсе И. Б-Р  дом 83/А", "title":"4978233;  Кольцова Оп", "lat":50.4265409, "lng":30.4206298},
{"address":"Киев  Леси Украинки Б-Р  дом 20", "title":"2964156;  Мішева Ог", "lat":50.4262209, "lng":30.5407313},
{"address":"Киев  Леси Украинки Пл.  дом 1", "title":"2868607;  Антимонопол.к-Т Укр. Обл.вiд-Ня *** Київське Обласне Територiальне Вiддiлення Антимонополь", "lat":50.428076, "lng":30.54141},
{"address":"Киев  Леси Украинки Ул.  дом 15", "title":"4348589;  Заяев Дм", "lat":50.524235, "lng":30.589837},
{"address":"Киев  Лескова Ул.  дом 2", "title":"2346788;  Дпі У Печерському Р-Ні М.києва Державна Податкова Інспекція У Печерському Районі М.києва", "lat":50.431528, "lng":30.540133},
{"address":"Киев  Лесной Пр-Т  дом 8", "title":"5189340;  Борщ Вм", "lat":50.478918, "lng":30.622131},
{"address":"Киев  Лесной Пр-Т  дом 9", "title":"5197607;  Черепенко Ов", "lat":50.48102249999999, "lng":30.622673},
{"address":"Киев  Лесной Пр-Т  дом 17/Б", "title":"5188766;  Хоменко Ва", "lat":50.4818323, "lng":30.6288967},
{"address":"Киев  Лесной Пр-Т  дом 31", "title":"5186317;  Куба Ва", "lat":50.483825, "lng":30.636116},
{"address":"Киев  Лесной Пр-Т  дом 31", "title":"5187522;  Гаврилюк Пм", "lat":50.483825, "lng":30.636116},
{"address":"Киев  Лесной Пр-Т  дом 33", "title":"5181950;  Поліщук Лі", "lat":50.485277, "lng":30.637878},
{"address":"Киев  Лисковская Ул.  дом 7/А", "title":"5345556;  Порошина Єв", "lat":50.52210299999999, "lng":30.602645},
{"address":"Киев  Лисковская Ул.  дом 12", "title":"5355010;  Біденко Вв", "lat":50.52557299999999, "lng":30.599613},
{"address":"Киев  Лисковская Ул.  дом 12", "title":"5355119;  Олійник Ов", "lat":50.52557299999999, "lng":30.599613},
{"address":"Киев  Лукьяновская Ул.  дом 7", "title":"4636612;  Ісаєв До", "lat":50.465245, "lng":30.491134},
{"address":"Киев  Лумумбы П. Ул.  дом 4/6", "title":"5219928;  украгропромбуд Корпорацiя Українська Кооп.-Держ.корпорацiя По Агропром.будiвництву ", "lat":50.420567, "lng":30.529356},
{"address":"Киев  Луначарского Ул.  дом 7", "title":"5167478;  Москалюк Вм", "lat":50.459252, "lng":30.58939},
{"address":"Киев  Луначарского Ул.  дом 24", "title":"5178537;  Митякова Оп", "lat":50.4573264, "lng":30.5932117},
{"address":"Киев  Луначарского Ул.  дом 24", "title":"5175857;  Нестерчук Нм", "lat":50.4573264, "lng":30.5932117},
{"address":"Киев  Лысенко Ул.  дом 6", "title":"4654914;  Служба Мтз Пзз Служба Матерiально-Технiчного Забезпечення Пiвденно-Захiд", "lat":50.447737, "lng":30.511359},
{"address":"Киев  Лысенко Ул.  дом 6", "title":"4811091;  київська Дистанцiя Сигналiзацiї I Звязку Пiвденно-Захiдної Закиївська Дистанцiя Сигналi", "lat":50.447737, "lng":30.511359},
{"address":"Киев  Львовская Пл.  дом 8", "title":"2473633;  Дпа України Державна Податкова Адмiнiстрацiя України", "lat":50.455934, "lng":30.505742},
{"address":"Киев  Львовская Ул.  дом 51", "title":"4507303;  Сікеріна Гв", "lat":50.452512, "lng":30.354671},
{"address":"Киев  Лятошинского Компо  дом 4/А", "title":"2502913;  Зінченко Ос", "lat":50.4501, "lng":30.5234},
{"address":"Киев  Лятошинского Компо  дом 14/Б", "title":"2508524;  Ткаченко Ом", "lat":50.4501, "lng":30.5234},
{"address":"Киев  Майорова М. Ул.  дом 1", "title":"4643110;  Малицька Сг", "lat":50.51914799999999, "lng":30.463469},
{"address":"Киев  Малиновского Марша  дом 13/Б", "title":"4180838;  Ємцова Но", "lat":50.502899, "lng":30.49517},
{"address":"Киев  Малышко А. Ул.  дом 11", "title":"5437432;  Гаджимагомедова Вв", "lat":50.45977560000001, "lng":30.618446},
{"address":"Киев  Малышко А. Ул.  дом 13/А", "title":"5432172;  Смолянський Ов", "lat":50.460507, "lng":30.618289},
{"address":"Киев  Малышко А. Ул.  дом 21", "title":"5136207;  Цатенко Тв", "lat":50.46081600000001, "lng":30.622269},
{"address":"Киев  Малышко А. Ул.  дом 27", "title":"5437633;  Грось Во", "lat":50.462031, "lng":30.623732},
{"address":"Киев  Малышко А. Ул.  дом 27", "title":"5137369;  Зозулинська Юм", "lat":50.462031, "lng":30.623732},
{"address":"Киев  Мартиросяна Ул.  дом 23", "title":"2429468;  Стеннік Мз", "lat":50.43069, "lng":30.450261},
{"address":"Киев  Матеюка Н. Ул.  дом 5", "title":"5131585;  Котелевська Ла", "lat":50.469572, "lng":30.636229},
{"address":"Киев  Матеюка Н. Ул.  дом 5/А", "title":"5490969;  Овчаренко Ом", "lat":50.470178, "lng":30.635257},
{"address":"Киев  Маяковского В. Пр-Т  дом 3/А", "title":"5350415;  Гребенюк Ог", "lat":50.4986588, "lng":30.5849272},
{"address":"Киев  Маяковского В. Пр-Т  дом 4", "title":"5460480;  Кужильна Лв", "lat":50.500293, "lng":30.591843},
{"address":"Киев  Маяковского В. Пр-Т  дом 12", "title":"5157675;  Кравченко Пп", "lat":50.502959, "lng":30.596981},
{"address":"Киев  Маяковского В. Пр-Т  дом 17/Г", "title":"5476184;  Ігнатьєв Со", "lat":50.502595, "lng":30.591724},
{"address":"Киев  Маяковского В. Пр-Т  дом 20", "title":"5155105;  Кучинський Ам", "lat":50.506576, "lng":30.606209},
{"address":"Киев  Маяковского В. Пр-Т  дом 29", "title":"5305599;  Деснянська Районна Державна Адміністрація У М.києві Деснянська Районна Державна Адміністра", "lat":50.50515, "lng":30.59842},
{"address":"Киев  Маяковского В. Пр-Т  дом 50", "title":"5329942;  Ващенко Зр", "lat":50.517423, "lng":30.619858},
{"address":"Киев  Маяковского В. Пр-Т  дом 51/А", "title":"5153992;  Карплюк Гі", "lat":50.510692, "lng":30.608987},
{"address":"Киев  Маяковского В. Пр-Т  дом 63/А", "title":"5305200;  Шиманський Оа", "lat":50.515116, "lng":30.612513},
{"address":"Киев  Маяковского В. Пр-Т  дом 63/А", "title":"5305254;  Приседко Ні", "lat":50.515116, "lng":30.612513},
{"address":"Киев  Маяковского В. Пр-Т  дом 69/А", "title":"5335514;  Чубенко Тс", "lat":50.516134, "lng":30.614216},
{"address":"Киев  Маяковского В. Пр-Т  дом 89", "title":"5309894;  Колотуша Мв", "lat":50.52540699999999, "lng":30.619005},
{"address":"Киев  Межигорская Ул.  дом 22", "title":"4251423;  Остапенко Ос", "lat":50.46828199999999, "lng":30.513964},
{"address":"Киев  Межигорская Ул.  дом 43", "title":"4636971;  Микал Ап", "lat":50.470715, "lng":30.508898},
{"address":"Киев  Межигорская Ул.  дом 82", "title":"4624866;  дп З Iнозем.iнвестицiямиде Лаваль Дочiрне Пiдприємство З Iноземними Iнвестицiямиде", "lat":50.476208, "lng":30.500866},
{"address":"Киев  Мельникова Ул.  дом 2/10", "title":"4813583;  дахк артем Державна Акцiонерна Холдингова Компанiя артем", "lat":50.464687, "lng":30.478706},
{"address":"Киев  Мельникова Ул.  дом 42", "title":"4822954;  Нацiональна Телекомпанiя України Нацiональна Телекомпанiя України", "lat":50.473482, "lng":30.459278},
{"address":"Киев  Метрологическая Ул.  дом 14/3", "title":"2667901;  Іншаков Ов", "lat":50.350527, "lng":30.476158},
{"address":"Киев  Метрологическая Ул.  дом 14/Б", "title":"2669197;  Iнститут Теоритичної Фiзики Iм.м.м.боголюбова Нан України Iнститут Теоритичної Фiзики Iм.", "lat":50.349824, "lng":30.476209},
{"address":"Киев  Метростроевская Ул.  дом 13/10", "title":"4552330;  Козлова Од", "lat":50.44021830000001, "lng":30.4127435},
{"address":"Киев  Мечникова Ул.  дом 18", "title":"2800329;  Шкурко Юп", "lat":50.43776700000001, "lng":30.53576899999999},
{"address":"Киев  Микитенко И. Ул.  дом 9/В", "title":"5421508;  Гловач Єо", "lat":50.487882, "lng":30.59793999999999},
{"address":"Киев  Милославская Ул.  дом 3", "title":"5353879;  Редька Ов", "lat":50.528347, "lng":30.627035},
{"address":"Киев  Милославская Ул.  дом 21/А", "title":"5353088;  Ляшок Км", "lat":50.52934699999999, "lng":30.616123},
{"address":"Киев  Милославская Ул.  дом 37", "title":"5339970;  Ковтуненко Нм", "lat":50.532452, "lng":30.601964},
{"address":"Киев  Милютенко Ул.  дом 9/А", "title":"5446101;  Прокопець Оз", "lat":50.46823, "lng":30.63013299999999},
{"address":"Киев  Милютенко Ул.  дом 10/1", "title":"5139005;  Бастричкіна Мф", "lat":50.46922, "lng":30.633447},
{"address":"Киев  Милютенко Ул.  дом 11/А", "title":"5445478;  Ліхачова Дт", "lat":50.46971, "lng":30.631184},
{"address":"Киев  Милютенко Ул.  дом 17", "title":"5441045;  Баршацька Жг", "lat":50.474881, "lng":30.628381},
{"address":"Киев  Милютенко Ул.  дом 36", "title":"5195974;  Андрющенко Сп", "lat":50.478303, "lng":30.627947},
{"address":"Киев  Минское Шоссе  дом 8/А", "title":"4321848;  Лонська Ав", "lat":50.524133, "lng":30.453898},
{"address":"Киев  Михайловская Ул.  дом 24/В", "title":"2705608;  е С М  Компанiя Компанiя е С М ", "lat":50.454583, "lng":30.523133},
{"address":"Киев  Мурашко Н. Ул.  дом 6/А", "title":"4862962;  Самойлова Iа", "lat":50.469067, "lng":30.478477},
{"address":"Киев  Набережно-Корчеват  дом 56/66", "title":"2594261;  Чемерська Вф", "lat":50.4501, "lng":30.5234},
{"address":"Киев  Набережно-Корчеват  дом 80", "title":"2593285;  Пасечний Оi", "lat":50.4501, "lng":30.5234},
{"address":"Киев  Навои А. Пр-Т  дом 1", "title":"5419715;  Департ.експл.водопровiдн.госп-Ва Департамент Експлуатацiї Водопровiдного Господарства Вiдк", "lat":50.472889, "lng":30.605115},
{"address":"Киев  Навои А. Пр-Т  дом 80", "title":"5108462;  Архангельська Гс", "lat":50.472508, "lng":30.600606},
{"address":"Киев  Навои А. Пр-Т  дом 82", "title":"5427795;  Кастрюкова На", "lat":50.473473, "lng":30.59973},
{"address":"Киев  Науки Пр-Т  дом 27", "title":"5258835;  Напханенко Гм", "lat":50.39695, "lng":30.53188},
{"address":"Киев  Науки Пр-Т  дом 54/Б", "title":"5258610;  Лісогор Вг", "lat":50.382667, "lng":30.531482},
{"address":"Киев  Наумова Генерала Ул  дом 19", "title":"4248432;  Омельченко Ва", "lat":50.472582, "lng":30.34124},
{"address":"Киев  Наумова Генерала Ул  дом 23/А", "title":"4236364;  Іващенко Вi", "lat":50.4725294, "lng":30.3367571},
{"address":"Киев  Наумова Генерала Ул  дом 33", "title":"4237759;  Кашуба Тi", "lat":50.471458, "lng":30.331112},
{"address":"Киев  Наумова Генерала Ул  дом 37/Б", "title":"4236257;  Хмиль Во", "lat":50.4686364, "lng":30.3315431},
{"address":"Киев  Нижний Вал Ул.  дом 51", "title":"4174215;  Аск Ват Укррiчфлот Акціонерна Судоплавна Компаніявідкрите Акціонерне Товарист", "lat":50.47055, "lng":30.518274},
{"address":"Киев  Николаева Ул.  дом 9/А", "title":"5350488;  Курбацька Ов", "lat":50.506947, "lng":30.593676},
{"address":"Киев  Новаторов Пер.  дом 22/А", "title":"5529853;  Горобей Вп", "lat":50.439094, "lng":30.651381},
{"address":"Киев  Новополевая Ул.  дом 49", "title":"4042049;  Пронько Гм", "lat":50.425779, "lng":30.43926799999999},
{"address":"Киев  Новоселки / Садовая  дом 11", "title":"5226476;  Омельяненко Оа", "lat":50.38772900000001, "lng":30.438346},
{"address":"Киев  Оболонский Пр-Т  дом 2/А", "title":"4108490;  Русецька Ві", "lat":50.498363, "lng":30.501096},
{"address":"Киев  Оболонский Пр-Т  дом 2/А", "title":"4183872;  Михайлов По", "lat":50.498363, "lng":30.501096},
{"address":"Киев  Оболонский Пр-Т  дом 9/А", "title":"4134961;  Карлашова Вй", "lat":50.506391, "lng":30.496922},
{"address":"Киев  Оболонский Пр-Т  дом 11", "title":"4134386;  Берулько Ва", "lat":50.50708700000001, "lng":30.497258},
{"address":"Киев  Оболонский Пр-Т  дом 12/А", "title":"4180190;  Почкіна Лі", "lat":50.5048363, "lng":30.5010939},
{"address":"Киев  Оболонский Пр-Т  дом 14/А", "title":"4187574;  Пирогова Ад", "lat":50.505663, "lng":30.499912},
{"address":"Киев  Оболонский Пр-Т  дом 15", "title":"4134473;  Федоренко Пп", "lat":50.510125, "lng":30.497588},
{"address":"Киев  Оболонский Пр-Т  дом 23/А", "title":"4183798;  Дп Ср-Бу Лiфт-3 Дочiрнє Пiдприємство Спецiалiзоване Ремонтно-Будiвельне Уп", "lat":50.515035, "lng":30.496757},
{"address":"Киев  Оболонский Пр-Т  дом 23/А", "title":"4126028;  Оснік Ів", "lat":50.515035, "lng":30.496757},
{"address":"Киев  Оболонский Пр-Т  дом 23/А", "title":"4126967;  Шик Ів", "lat":50.515035, "lng":30.496757},
{"address":"Киев  Оболонский Пр-Т  дом 30", "title":"4129785;  Купрін-Іванчиков Св", "lat":50.516212, "lng":30.499729},
{"address":"Киев  Оболонский Пр-Т  дом 34/Г", "title":"4260760;  Гринь Тв", "lat":50.517348, "lng":30.503029},
{"address":"Киев  Оболонский Пр-Т  дом 36", "title":"4126672;  Понеділок Нв", "lat":50.519433, "lng":30.499843},
{"address":"Киев  Олеговская Ул.  дом 34/Б", "title":"4177396;  ват радiо I Телебачення Ват радiо I Телебачення", "lat":50.46599399999999, "lng":30.50570399999999},
{"address":"Киев  Оленевская Ул.  дом 16", "title":"4175606;  Харитонов Юм", "lat":50.4501, "lng":30.5234},
{"address":"Киев  Ольжича О. Ул.  дом 23", "title":"4404125;  Шушковська Нв", "lat":50.479511, "lng":30.445085},
{"address":"Киев  Орская Ул.  дом 11", "title":"4639698;  Крамаренко Юа", "lat":50.52005, "lng":30.43400099999999},
{"address":"Киев  Осокорки / Озерная У  дом 4/2", "title":"5754117;  Желтов Мi", "lat":50.4501, "lng":30.5234},
{"address":"Киев  Отрадный Пр-Т  дом 22/Б", "title":"4976832;  Жарик Мб", "lat":50.425763, "lng":30.426449},
{"address":"Киев  Отрадный Пр-Т  дом 40", "title":"4550466;  Пiдпр.атанасова Г.м. Фiзична Особа-Пiдприємець Атанасова Ганна Михайлiвна", "lat":50.41694099999999, "lng":30.423672},
{"address":"Киев  Отрадный Пр-Т  дом 59", "title":"4552027;  Ковиліна Тп", "lat":50.430332, "lng":30.431882},
{"address":"Киев  Патриотов Ул.  дом 64", "title":"4088727;  Терех Но", "lat":50.428894, "lng":30.434301},
{"address":"Киев  Перова Б-Р  дом 10", "title":"5104247;  Пожарицька Ло", "lat":50.47009000000001, "lng":30.599117},
{"address":"Киев  Перова Б-Р  дом 11/Б", "title":"5408139;  Жура Ав", "lat":50.480603, "lng":30.592649},
{"address":"Киев  Перова Б-Р  дом 13/2", "title":"5402200;  Баранюк Юм", "lat":50.481249, "lng":30.591354},
{"address":"Киев  Петропавловская Ул.  дом 58", "title":"4687918;  Колонська Сб", "lat":50.483204, "lng":30.455731},
{"address":"Киев  Плеханова Ул.  дом 6", "title":"5169002;  Пільгук Нi", "lat":50.446188, "lng":30.599414},
{"address":"Киев  Победы Пр-Т  дом 50", "title":"5219286;  Держ.видавн.`преса України` Державне Видавництво `преса України` Державного Управлiння", "lat":50.4557964, "lng":30.4439735},
{"address":"Киев  Победы Пр-Т  дом 62/1", "title":"4566918;  Пунагін Мя", "lat":50.457231, "lng":30.433025},
{"address":"Киев  Победы Пр-Т  дом 95", "title":"4525389;  Жилкіна Оо", "lat":50.4564873, "lng":30.3820274},
{"address":"Киев  Победы Пр-Т  дом 122/А", "title":"4520449;  Журба Пi", "lat":50.45735999999999, "lng":30.37456299999999},
{"address":"Киев  Победы Пр-Т  дом 146/2", "title":"4509519;  Писарчук Гс", "lat":50.456221, "lng":30.347474},
{"address":"Киев  Подлесная Ул.  дом 2", "title":"4231832;  Гриценко Ко", "lat":50.4721, "lng":30.339468},
{"address":"Киев  Пожарского Ул.  дом 13", "title":"5732266;  Саранцева Нв", "lat":50.455027, "lng":30.621404},
{"address":"Киев  Полковая Ул.  дом 14", "title":"4303325;  Меньшиков Ав", "lat":50.494096, "lng":30.436662},
{"address":"Киев  Полковая Ул.  дом 55", "title":"4634182;  Марченко Мо", "lat":50.49089, "lng":30.4247},
{"address":"Киев  Полярная Ул.  дом 6/А", "title":"4624520;  Павлюк Пм", "lat":50.517911, "lng":30.460875},
{"address":"Киев  Полярная Ул.  дом 11", "title":"4325583;  Степанович Ог", "lat":50.519302, "lng":30.459726},
{"address":"Киев  Попудренко Ул.  дом 26/9", "title":"5588182;  Чернецька Гi", "lat":50.455509, "lng":30.61743499999999},
{"address":"Киев  Порика В. Ул.  дом 14", "title":"4346274;  Бибик Гм", "lat":50.50790199999999, "lng":30.421809},
{"address":"Киев  Потапова Генерала У  дом 1/5", "title":"2761710;  Жаркова Лм", "lat":50.4251166, "lng":30.3889304},
{"address":"Киев  Потапова Генерала У  дом 4", "title":"4050636;  Ковтун Iв", "lat":50.423348, "lng":30.385378},
{"address":"Киев  Правды Пр-Т  дом 8", "title":"4605252;  Мирза Мі", "lat":50.50570099999999, "lng":30.442868},
{"address":"Киев  Правды Пр-Т  дом 62/Б", "title":"4606109;  Бушко Ом", "lat":50.50456699999999, "lng":30.433317},
{"address":"Киев  Предславинская Ул.  дом 38", "title":"5282331;  Дуденко Вв", "lat":50.41849999999999, "lng":30.524293},
{"address":"Киев  Приречная Ул.  дом 19", "title":"4132926;  Латишева Ов", "lat":50.51995300000001, "lng":30.520662},
{"address":"Киев  Притиско-Никольска  дом 2", "title":"4253883;  Степанець Од", "lat":50.4501, "lng":30.5234},
{"address":"Киев  Пушиной Ф. Ул.  дом 44/50", "title":"4521108;  Севрюков Вм", "lat":50.457645, "lng":30.35469},
{"address":"Киев  Радужная Ул.  дом 3/Б", "title":"5423904;  Крижановська Вм", "lat":50.490509, "lng":30.586371},
{"address":"Киев  Радужная Ул.  дом 11", "title":"5401809;  Музиченко Мф", "lat":50.48772200000001, "lng":30.584745},
{"address":"Киев  Радужная Ул.  дом 14", "title":"5424307;  Гришин Лв", "lat":50.489922, "lng":30.580396},
{"address":"Киев  Радужная Ул.  дом 18", "title":"5424515;  Ярош Тв", "lat":50.48905999999999, "lng":30.580366},
{"address":"Киев  Радунская Ул.  дом 3", "title":"5355672;  Колотилова Мп", "lat":50.5245185, "lng":30.5996704},
{"address":"Киев  Радунская Ул.  дом 11/А", "title":"5357301;  Дударь Нв", "lat":50.530442, "lng":30.598319},
{"address":"Киев  Радунская Ул.  дом 18/А", "title":"5348570;  Малюченко Нг", "lat":50.52137, "lng":30.599719},
{"address":"Киев  Радунская Ул.  дом 22/9", "title":"5348281;  Канарська На", "lat":50.523219, "lng":30.600011},
{"address":"Киев  Радунская Ул.  дом 28", "title":"5357188;  Данченко Вм", "lat":50.525794, "lng":30.602944},
{"address":"Киев  Ревуцкого Ул.  дом 18/А", "title":"5707925;  Гатина Iв", "lat":50.41008, "lng":30.643079},
{"address":"Киев  Ревуцкого Ул.  дом 29", "title":"5624647;  Яворська Сі", "lat":50.40830099999999, "lng":30.649108},
{"address":"Киев  Ревуцкого Ул.  дом 34", "title":"5652132;  Коломієць Вг", "lat":50.406985, "lng":30.647893},
{"address":"Киев  Рейтарская Ул.  дом 25", "title":"2720145;  приватне Пiдприємство Iрбiс Плюс Приватне Пiдприємство iрбiс Плюс", "lat":50.45204, "lng":30.51023399999999},
{"address":"Киев  Рокоссовского Марш  дом 7", "title":"4322064;  Піх Вм", "lat":50.524605, "lng":30.459678},
{"address":"Киев  Роллана Р. Б-Р  дом 5/В", "title":"2734955;  Гоша Гд", "lat":50.428557, "lng":30.369384},
{"address":"Киев  Роллана Р. Б-Р  дом 13", "title":"2743403;  Крикуненко Вп", "lat":50.435227, "lng":30.367499},
{"address":"Киев  Рубежовская Ул.  дом 38", "title":"4235413;  Череднік Єв", "lat":50.475022, "lng":30.349273},
{"address":"Киев  Руденко Л. Ул.  дом 7", "title":"5657395;  Гусячий Вв", "lat":50.396631, "lng":30.644394},
{"address":"Киев  Русановская Наб.  дом 4/1", "title":"5554677;  Лесь Км", "lat":50.434669, "lng":30.594145},
{"address":"Киев  Русановский Б-Р  дом 1", "title":"5555287;  Чиркова Оо", "lat":50.4385485, "lng":30.5937068},
{"address":"Киев  Русановский Б-Р  дом 2", "title":"5168905;  Дзик Оі", "lat":50.437904, "lng":30.592567},
{"address":"Киев  Русановский Б-Р  дом 5", "title":"5550612;  Ломакін Вд", "lat":50.43926099999999, "lng":30.594312},
{"address":"Киев  Рыбацкая Ул.  дом 13", "title":"2800459;  Йосипенко Оi", "lat":50.43418399999999, "lng":30.540474},
{"address":"Киев  Рылеева Ул.  дом 7/11", "title":"4684133;  Круть Сс", "lat":50.487454, "lng":30.465847},
{"address":"Киев  Сабурова Ул.  дом 1", "title":"5453414;  Завгородняя Лм", "lat":50.509574, "lng":30.619424},
{"address":"Киев  Сабурова Ул.  дом 15", "title":"5453126;  Медвєдєв Вм", "lat":50.513596, "lng":30.608636},
{"address":"Киев  Саксаганского Ул.  Виноградо", "title":"2891549;  укр. Держ. Концерн укрсадвинпром Український Державний Концерн Садiвництва", "lat":50.438922, "lng":30.50260699999999},
{"address":"Киев  Саксаганского Ул.  дом 103", "title":"2843502;  Аляб'єва Мс", "lat":50.440402, "lng":30.500123},
{"address":"Киев  Салютная Ул.  дом 12/62", "title":"4494444;  Ігнатенко Во", "lat":50.471702, "lng":30.412347},
{"address":"Киев  Салютная Ул.  дом 42/46", "title":"4222575;  Рябіка Св", "lat":50.47166499999999, "lng":30.421677},
{"address":"Киев  Саперное Поле Ул.  дом 26", "title":"5286624;  Комлєва Ов", "lat":50.417817, "lng":30.531567},
{"address":"Киев  Саратовская Ул.  дом 10", "title":"4432472;  Бутов Вф", "lat":50.46850999999999, "lng":30.415008},
{"address":"Киев  Свободы Пр-Т  дом 2", "title":"4606594;  Дідковський Во", "lat":50.506254, "lng":30.438234},
{"address":"Киев  Свободы Пр-Т  дом 5", "title":"4335212;  Бутко Ов", "lat":50.507537, "lng":30.432071},
{"address":"Киев  Свободы Пр-Т  дом 6/А", "title":"4674289;  Кріль Юм", "lat":50.508371, "lng":30.433427},
{"address":"Киев  Свободы Пр-Т  дом 24/А", "title":"4348634;  Марчук Аа", "lat":50.513417, "lng":30.426421},
{"address":"Киев  Святославская Ул.  дом 15", "title":"2410818;  Герасимчук Но", "lat":50.427575, "lng":30.445726},
{"address":"Киев  Святошинский Пер.  дом 2", "title":"4077875;  Сидоренко Вм", "lat":50.449005, "lng":30.386169},
{"address":"Киев  Северная Ул.  дом 2/Д", "title":"4640054;  Кушнаренко Ов", "lat":50.527497, "lng":30.501985},
{"address":"Киев  Северная Ул.  дом 6", "title":"4673614;  Альошин Пв", "lat":50.527469, "lng":30.503898},
{"address":"Киев  Северная Ул.  дом 48", "title":"4263816;  Рижаєва Лв", "lat":50.527356, "lng":30.511499},
{"address":"Киев  Сентябрьская Ул.  дом 5", "title":"5674160;  Жежела Ов", "lat":50.4501, "lng":30.5234},
{"address":"Киев  Сентябрьская Ул.  дом 12", "title":"5676552;  Іванова Єд", "lat":50.4501, "lng":30.5234},
{"address":"Киев  Серафимовича Ул.  дом 19", "title":"5508733;  Кравченко Сг", "lat":50.435609, "lng":30.607948},
{"address":"Киев  Симиренко Ул.  дом 20", "title":"4017923;  Паламарчук Гс", "lat":50.409006, "lng":30.398898},
{"address":"Киев  Сирецкая Ул.  дом 38/Г", "title":"4327859;  Балицький Оі", "lat":50.491715, "lng":30.456649},
{"address":"Киев  Смелянская Ул.  дом 8", "title":"2459773;  Коломієць Пм", "lat":50.422994, "lng":30.452256},
{"address":"Киев  Смелянская Ул.  дом 13", "title":"2421625;  Пашнюк Мi", "lat":50.42379, "lng":30.447211},
{"address":"Киев  Смоленская Ул.  дом 19", "title":"4547063;  Національна Комісія Регулювання Електроенергетики України Національна Комісія Регулювання", "lat":50.45047599999999, "lng":30.448504},
{"address":"Киев  Смолича Ю. Ул.  дом 4", "title":"2507073;  Хомич Оо", "lat":50.391245, "lng":30.457406},
{"address":"Киев  Сокальская Ул.  дом 6", "title":"4323833;  Абдуллаєва Ім", "lat":50.502959, "lng":30.453588},
{"address":"Киев  Столичное Шоссе  дом 90", "title":"2845200;  Сп У Формi Тов Автомобiльний Дiм Україна Мерседес-Бенц Спiльне Пiдприємсто У Формі Товарис", "lat":50.349116, "lng":30.553949},
{"address":"Киев  Столичное Шоссе  дом 215", "title":"2592310;  дп Санаторiй Конча-Заспа Державне Пiдприємство санаторiй конча-Заспа", "lat":50.34776249999999, "lng":30.5489725},
{"address":"Киев  Строителей Ул.  дом 4", "title":"2960476;  Торканевський Ав", "lat":50.444707, "lng":30.624773},
{"address":"Киев  Строителей Ул.  дом 8/А", "title":"5582195;  Джура Гi", "lat":50.445612, "lng":30.623583},
{"address":"Киев  Строителей Ул.  дом 22/11", "title":"5599338;  Носов Гт", "lat":50.44829499999999, "lng":30.61511699999999},
{"address":"Киев  Строителей Ул.  дом 24", "title":"5733850;  Коржавих См", "lat":50.449059, "lng":30.614789},
{"address":"Киев  Строителей Ул.  дом 25", "title":"4108707;  аек киiвенерго Філіал Енергосервіс Київенерго Акцiонерна Енергопостачальна Компанiя ", "lat":50.448498, "lng":30.61347},
{"address":"Киев  Строителей Ул.  дом 26/8", "title":"5588214;  Кришень Ві", "lat":50.445313, "lng":30.622554},
{"address":"Киев  Строкача Т. Ул.  дом 3", "title":"4070008;  Коносов Вм", "lat":50.435446, "lng":30.39711299999999},
{"address":"Киев  Студенческая Ул.  дом 9", "title":"4088322;  Удсо При Гу Мвс Укр.в М.києвi Управлiння Державної Служби Охорони При Гу Мвс України В М", "lat":50.458899, "lng":30.488838},
{"address":"Киев  Суворова Ул.  дом 19", "title":"2802627;  Дяденко Мс", "lat":50.43530000000001, "lng":30.546022},
{"address":"Киев  Сухумская Ул.  дом 16", "title":"4301971;  Жолткевич Ні", "lat":50.522692, "lng":30.440829},
{"address":"Киев  Тверская Ул.  дом 5", "title":"4651280;  укрзалiзниця Управлiння Справами Управлiння Справами укрзалiзниця", "lat":50.419904, "lng":30.525801},
{"address":"Киев  Тверской Тупик  дом 6/8", "title":"5284750;  Пілецька Оа", "lat":50.422904, "lng":30.532029},
{"address":"Киев  Тверской Тупик  дом 10", "title":"5286521;  Ярошенко Вг", "lat":50.423814, "lng":30.532289},
{"address":"Киев  Телиги Е. Ул.  дом 37/Е", "title":"4404445;  Бінська Мо", "lat":50.480813, "lng":30.450169},
{"address":"Киев  Тешебаева Ул.  дом 58", "title":"4422495;  Севостьянчук Юф", "lat":50.470371, "lng":30.411691},
{"address":"Киев  Тимошенко Маршала У  дом 1", "title":"4191267;  Осення Гі", "lat":50.5087339, "lng":30.4858315},
{"address":"Киев  Тимошенко Маршала У  дом 6", "title":"4108656;  Усик Об", "lat":50.51082599999999, "lng":30.493357},
{"address":"Киев  Тимошенко Маршала У  дом 6/А", "title":"4182964;  Терентьєва Мя", "lat":50.510422, "lng":30.494763},
{"address":"Киев  Тимошенко Маршала У  дом 7", "title":"4182872;  Немченко Мм", "lat":50.509517, "lng":30.489764},
{"address":"Киев  Тимошенко Маршала У  дом 29", "title":"4268269;  Савченко Ом", "lat":50.5129728, "lng":30.5022955},
{"address":"Киев  Тополевая Ул.  дом 4/8", "title":"2487967;  Вінциславська На", "lat":50.440676, "lng":30.475066},
{"address":"Киев  Тростянецкая Ул.  дом 5/Б", "title":"5633157;  Пащенко Єг", "lat":50.417899, "lng":30.648771},
{"address":"Киев  Труда Б-Р  дом 7", "title":"5588923;  Герман Єг", "lat":50.454886, "lng":30.618202},
{"address":"Киев  Тулузы Ул.  дом 16", "title":"2745057;  Бершадський Мя", "lat":50.430975, "lng":30.373859},
{"address":"Киев  Туманяна О. Ул.  дом 8", "title":"5171848;  Козаченко Мп", "lat":50.44539400000001, "lng":30.599304},
{"address":"Киев  Туманяна О. Ул.  дом 8", "title":"5173314;  Глинчак Нм", "lat":50.44539400000001, "lng":30.599304},
{"address":"Киев  Тупикова Генерала У  дом 3/1", "title":"4570383;  Козловська Оп", "lat":50.446014, "lng":30.434245},
{"address":"Киев  Тупикова Генерала У  дом 14/В", "title":"4578138;  Панфілов Оп", "lat":50.444026, "lng":30.436249},
{"address":"Киев  Туполева Академика  дом 16/Г", "title":"4437611;  Маляров Бк", "lat":50.475316, "lng":30.39648399999999},
{"address":"Киев  Тургеневская Ул.  дом 52/58", "title":"4823146;  Малка Кл", "lat":50.453163, "lng":30.491021},
{"address":"Киев  Тычины П. Пр-Т  дом 13", "title":"5505294;  Короткий Ві", "lat":50.431785, "lng":30.608649},
{"address":"Киев  Уборевича Командар  дом 19/А", "title":"4230904;  Кракович Дв", "lat":50.4501, "lng":30.5234},
{"address":"Киев  Урицкого Ул.  дом 34", "title":"2455511;  Будков Ап", "lat":50.433011, "lng":30.477772},
{"address":"Киев  Урловская Ул.  дом 5/А", "title":"5757651;  Бурмака Мф", "lat":50.404836, "lng":30.620476},
{"address":"Киев  Ушакова М. Ул.  дом 2", "title":"4501442;  Шейченко Во", "lat":50.378585, "lng":30.533418},
{"address":"Киев  Ушакова М. Ул.  дом 4", "title":"4501669;  Тімощук Ом", "lat":50.378415, "lng":30.533392},
{"address":"Киев  Федорова И. Ул.  дом 9", "title":"2681835;  Куліш Мя", "lat":50.4278, "lng":30.519571},
{"address":"Киев  Фрометовский Спуск  дом 24", "title":"5254342;  Дронь Нi", "lat":50.41014699999999, "lng":30.508798},
{"address":"Киев  Фрунзе Ул.  дом 2/9", "title":"4254167;  Крохмаль Лл", "lat":50.466844, "lng":30.509807},
{"address":"Киев  Фучика Ю. Ул.  дом 8", "title":"2453017;  Овраменко Мм", "lat":50.440448, "lng":30.471555},
{"address":"Киев  Харьковское Шоссе  дом 48", "title":"5510356;  Iн-Т Хiмiї Високомолекулярних Сполук Iнститут Хiмiї Високомолекулярних Сполук Нан України", "lat":50.43248999999999, "lng":30.632479},
{"address":"Киев  Харьковское Шоссе  дом 53/А", "title":"5636346;  Губич Вм", "lat":50.42187699999999, "lng":30.654249},
{"address":"Киев  Харьковское Шоссе  дом 146", "title":"5633896;  Горбач Вм", "lat":50.421276, "lng":30.648785},
{"address":"Киев  Харьковское Шоссе  дом 150/15", "title":"5627921;  Ступацька Оо", "lat":50.419196, "lng":30.653806},
{"address":"Киев  Харьковское Шоссе  дом 168/А", "title":"5622962;  Бендик Лп", "lat":50.413405, "lng":30.65988},
{"address":"Киев  Хмельницкого Б. Ул.  дом 8/16", "title":"2792757;  українське Національне Інформаційне Агенство укрінформ Українське Національне Інформа", "lat":50.44555099999999, "lng":30.517716},
{"address":"Киев  Хмельницкого Б. Ул.  дом 10", "title":"2355746;  Тарабан См", "lat":50.446175, "lng":30.517466},
{"address":"Киев  Хмельницкого Б. Ул.  дом 54", "title":"2784522;  Управлiння Державної Автомобiльної Iнспекцiї Головного Управлiуправлiння Державної Автомоб", "lat":50.44765899999999, "lng":30.506105},
{"address":"Киев  Хмельницкого Б. Ул.  дом 54", "title":"4424368;  Управлiння Державної Автомобiльної Iнспекцiї Головного Управлiуправлiння Державної Автомоб", "lat":50.44765899999999, "lng":30.506105},
{"address":"Киев  Чаадаева П. Ул.  дом 2/Б", "title":"2872476;  зiнга Метал Україна Пп Приватне Пiдприємство зiнга Метал Україна", "lat":50.436708, "lng":30.37244},
{"address":"Киев  Чабаны / Машиностро  дом 6", "title":"5267708;  Римлянський Ом", "lat":50.3420952, "lng":30.4263582},
{"address":"Киев  Чабаны / Юности Ул.  дом 1", "title":"5268850;  Мельник Єм", "lat":50.3382024, "lng":30.4230121},
{"address":"Киев  Чабаны / Юности Ул.  дом 1", "title":"5269652;  Моргун Ла", "lat":50.3382024, "lng":30.4230121},
{"address":"Киев  Чабаны / Юности Ул.  дом 1", "title":"5267355;  Коваль Пм", "lat":50.3382024, "lng":30.4230121},
{"address":"Киев  Челябинская Ул.  дом 7", "title":"5175004;  Костенко Iо", "lat":50.459316, "lng":30.59541},
{"address":"Киев  Чернобыльская Ул.  дом 4/56", "title":"4507229;  Малаш Мi", "lat":50.45722300000001, "lng":30.347164},
{"address":"Киев  Чернобыльская Ул.  дом 11", "title":"4502927;  Клочков Аа", "lat":50.458628, "lng":30.344833},
{"address":"Киев  Чоколовский Б-Р  дом 14", "title":"2495402;  Лисюк Ос", "lat":50.42813, "lng":30.458349},
{"address":"Киев  Чоколовский Б-Р  дом 28/1", "title":"2434602;  Капустенко Ов", "lat":50.42629, "lng":30.45845899999999},
{"address":"Киев  Чоколовский Б-Р  дом 37", "title":"2429172;  Калугін Юо", "lat":50.436664, "lng":30.451972},
{"address":"Киев  Чорновола В. Ул.  дом 10", "title":"4867332;  Демченко Iо", "lat":50.45605, "lng":30.484709},
{"address":"Киев  Чорновола В. Ул.  дом 28/1", "title":"2365975;  українська Дитяча Спеціалізована Лікарня охматдит Українська Дитяча Спеціалізована Лі", "lat":50.451396, "lng":30.482976},
{"address":"Киев  Чудновского Ул.  дом 8", "title":"5585843;  Дзядевич Лг", "lat":50.444496, "lng":30.621153},
{"address":"Киев  Чумака В. Ул.  дом 4", "title":"4046645;  Квашук Во", "lat":50.441736, "lng":30.413522},
{"address":"Киев  Шлихтера Академика  дом 2/26", "title":"5588846;  Сорочан Аа", "lat":50.4403501, "lng":30.6120682},
{"address":"Киев  Шлихтера Академика  дом 2/26", "title":"5593959;  Шурмиль Св", "lat":50.4403501, "lng":30.6120682},
{"address":"Киев  Шлихтера Академика  дом 14", "title":"5590296;  Трипольський Сю", "lat":50.44362899999999, "lng":30.610641},
{"address":"Киев  Шовкуненко Ул.  дом 5", "title":"2483990;  Візерська Гє", "lat":50.436492, "lng":30.47681},
{"address":"Киев  Шолом-Алейхема Ул.  дом 1", "title":"5131132;  Гербольд Нє", "lat":50.47162059999999, "lng":30.62549469999999},
{"address":"Киев  Шолом-Алейхема Ул.  дом 6", "title":"5443161;  Макарова Іі", "lat":50.470672, "lng":30.627225},
{"address":"Киев  Шолом-Алейхема Ул.  дом 6", "title":"5443158;  Федоренко Аг", "lat":50.470672, "lng":30.627225},
{"address":"Киев  Шолом-Алейхема Ул.  дом 8/А", "title":"5134731;  Фандралюк Мс", "lat":50.470319, "lng":30.62982599999999},
{"address":"Киев  Шолом-Алейхема Ул.  дом 20", "title":"5442320;  Бондар Тi", "lat":50.47291999999999, "lng":30.637352},
{"address":"Киев  Шпака Н. Ул.  дом 2", "title":"4542217;  Iн-Т Проблем Реєстрацiї Iнформацiї Нан України Інститут Проблем Реєстрації Інформації Наці", "lat":50.458103, "lng":30.431265},
{"address":"Киев  Шумского Ю. Ул.  дом 6", "title":"5535424;  Тарнавська Гм", "lat":50.425293, "lng":30.60224},
{"address":"Киев  Щорса Ул.  дом 36", "title":"5299831;  Київський Нацiональний Унiверситет Культури I Мистецтв Київський Нацiональний Унiверситет", "lat":50.42466599999999, "lng":30.534694},
{"address":"Киев  Щусева Академика Ул  дом 8/А", "title":"4402752;  Мельников Вп", "lat":50.4501, "lng":30.5234},
{"address":"Киев  Щусева Академика Ул  дом 42", "title":"4406615;  Кравченко Тф", "lat":50.4501, "lng":30.5234},
{"address":"Киев  Энтузиастов Ул.  дом 7/1", "title":"5534052;  Петренко Во", "lat":50.436381, "lng":30.600312},
{"address":"Киев  Энтузиастов Ул.  дом 9/2", "title":"5553640;  Родіонова Мв", "lat":50.438257, "lng":30.601591},
{"address":"Киев  Энтузиастов Ул.  дом 29/1", "title":"5174261;  Кравченко Оо", "lat":50.441122, "lng":30.603259},
{"address":"Киев  Энтузиастов Ул.  дом 35/1", "title":"5554939;  Буткевич Кi", "lat":50.441367, "lng":30.60010399999999},
{"address":"Киев  Энтузиастов Ул.  дом 37", "title":"5173548;  Білошицький Лп", "lat":50.442846, "lng":30.599328},
{"address":"Киев  Энтузиастов Ул.  дом 39", "title":"5164405;  Книшова Вп", "lat":50.443273, "lng":30.5976},
{"address":"Киев  Энтузиастов Ул.  дом 39", "title":"5171121;  Іл'єнко Ов", "lat":50.443273, "lng":30.5976},
{"address":"Киев  Эспланадная Ул.  дом 8/10", "title":"2895688;  Мiнiстерство Праці Та Соціальної Політики України Мiнiстерство Праці Та Соціальної Політик", "lat":50.438783, "lng":30.52125},
{"address":"Киев  Юности Ул.  дом 6/А", "title":"5438379;  Козачок Мс", "lat":50.463962, "lng":30.618299},
{"address":"Киев  Юры Г. Ул.  дом 12", "title":"4034157;  Корнієнко Рп", "lat":50.433321, "lng":30.383537},
{"address":"Киев  Юры Г. Ул.  дом 16", "title":"2740006;  Мулик Св", "lat":50.432455, "lng":30.38358},
{"address":"Киев  Якубовского Маршал  дом 5", "title":"2507306;  Клокун Гв", "lat":50.381074, "lng":30.453458},
{"address":"Киев  Январского Восстан  дом 24", "title":"2802590;  Драчек Iг", "lat":46.45353129999999, "lng":30.70895},
{"address":"Киев  Январского Восстан  дом 24", "title":"2807161;  Івченко Нм", "lat":46.45353129999999, "lng":30.70895},
{"address":"Киев  Ярославов Вал Ул.  дом 17/Б", "title":"2350876;  Стукало Во", "lat":50.450893, "lng":30.50895}
]
