[
    {
        "title": "Владимирский рынок",
        "lat": "50.4216439",
        "lng": "30.5183404"
    },
    {
        "title": "Вещевой рынок  Изюмский ",
        "lat": "50.4107481",
        "lng": "30.5178053"
    },
    {
        "title": "Плодово-овощной рынок",
        "lat": "50.4094337",
        "lng": "30.5188996"
    },
    {
        "title": "Бессарабский рынок",
        "lat": "50.4423992",
        "lng": "30.5215376"
    },
    {
        "title": "Рынок  Демеевский ",
        "lat": "50.4082734",
        "lng": "30.5194696"
    },
    {
        "title": "Печерский рынок",
        "lat": "50.4324447",
        "lng": "30.5412625"
    },
    {
        "title": "Рынок  Привокзальный ",
        "lat": "50.4408619",
        "lng": "30.492382"
    },
    {
        "title": "Соломенский рынок",
        "lat": "50.4220233",
        "lng": "30.4823023"
    },
    {
        "title": "Рынок  Пятачок ",
        "lat": "50.4182857",
        "lng": "30.5496418"
    },
    {
        "title": "Рынок «Сириус»",
        "lat": "50.4466337",
        "lng": "30.4883963"
    },
    {
        "title": "Магазин рослин Ботанічного саду",
        "lat": "50.411502",
        "lng": "30.5579577"
    },
    {
        "title": "Рыбацкий рынок",
        "lat": "50.4424745",
        "lng": "30.55727"
    },
    {
        "title": "Рынок  Севастопольский ",
        "lat": "50.4270574",
        "lng": "30.4574154"
    },
    {
        "title": "Житний рынок",
        "lat": "50.4644006",
        "lng": "30.5112782"
    },
    {
        "title": "Гастроном",
        "lat": "50.4553831",
        "lng": "30.473341"
    },
    {
        "title": "Мини-базарчик",
        "lat": "50.388492",
        "lng": "30.4951715"
    },
    {
        "title": "Лукьяновский рынок",
        "lat": "50.4616099",
        "lng": "30.4825799"
    },
    {
        "title": "IMRAD",
        "lat": "50.4364135",
        "lng": "30.4506308"
    },
    {
        "title": "Радиорынок",
        "lat": "50.4365895",
        "lng": "30.4500192"
    },
    {
        "title": "supermarket  Velukuy Viz ",
        "lat": "50.4466456",
        "lng": "30.4516929"
    },
    {
        "title": "Оптовая база",
        "lat": "50.4211756",
        "lng": "30.4412806"
    },
    {
        "title": "Spontaneous market",
        "lat": "50.4265431",
        "lng": "30.5943904"
    },
    {
        "title": "Рынок  Березняки ",
        "lat": "50.4331538",
        "lng": "30.600864"
    },
    {
        "title": "Рынок",
        "lat": "50.4328599",
        "lng": "30.4228645"
    },
    {
        "title": "Рынок «Левобережный»",
        "lat": "50.4511375",
        "lng": "30.5996249"
    },
    {
        "title": "Книжный рынок  Петровка ",
        "lat": "50.4856817",
        "lng": "30.4960405"
    },
    {
        "title": "Рынок  Петрик ",
        "lat": "50.486448",
        "lng": "30.4899841"
    },
    {
        "title": "Рынок стройматериалов",
        "lat": "50.3845097",
        "lng": "30.4403203"
    },
    {
        "title": "Рынок  Теремки ",
        "lat": "50.3787497",
        "lng": "30.448835"
    },
    {
        "title": "Хозяйственный рынок на Петровке",
        "lat": "50.4882791",
        "lng": "30.4968452"
    },
    {
        "title": "Авторынок  Жуляны ",
        "lat": "50.3917967",
        "lng": "30.4303881"
    },
    {
        "title": "Блошиный рынок",
        "lat": "50.4878388",
        "lng": "30.4862505"
    },
    {
        "title": "Рынок автозапчастей ООО «Автохелп»",
        "lat": "50.4300323",
        "lng": "30.4132528"
    },
    {
        "title": "Рынок",
        "lat": "50.3935168",
        "lng": "30.6037674"
    },
    {
        "title": "Отрадненский торговый центр",
        "lat": "50.4362896",
        "lng": "30.4091182"
    },
    {
        "title": "Рынок",
        "lat": "50.3986719",
        "lng": "30.6126909"
    },
    {
        "title": "Бутик парфюмерии Jassmin ",
        "lat": "50.4551284",
        "lng": "30.6128018"
    },
    {
        "title": "Рынок",
        "lat": "50.3984362",
        "lng": "30.6140507"
    },
    {
        "title": "Феофаниевский рынок",
        "lat": "50.3642268",
        "lng": "30.4653481"
    },
    {
        "title": "Оптовый рынок сельхозпродукции «Столичный»",
        "lat": "50.3816211",
        "lng": "30.4302926"
    },
    {
        "title": "Рынок",
        "lat": "50.4556631",
        "lng": "30.614739"
    },
    {
        "title": "Супермаркет строительных материалов  Мастерок ",
        "lat": "50.4248569",
        "lng": "30.4040304"
    },
    {
        "title": "Детский рынок",
        "lat": "50.4583398",
        "lng": "30.6129017"
    },
    {
        "title": "Книжный рынок  Книголюб ",
        "lat": "50.4559244",
        "lng": "30.614908"
    },
    {
        "title": "Одесский рынок",
        "lat": "50.3647419",
        "lng": "30.4470769"
    },
    {
        "title": "Ринок",
        "lat": "50.5008869",
        "lng": "30.4992565"
    },
    {
        "title": "Бывший колхозный рынок  Днепровский ",
        "lat": "50.4840595",
        "lng": "30.5909157"
    },
    {
        "title": "Місце зустрічі колекціонерів",
        "lat": "50.459551",
        "lng": "30.4075518"
    },
    {
        "title": "Авторынок",
        "lat": "50.484173",
        "lng": "30.5912912"
    },
    {
        "title": "Продуктовый рынок",
        "lat": "50.4149815",
        "lng": "30.3963642"
    },
    {
        "title": "Оптовый рынок",
        "lat": "50.4968007",
        "lng": "30.4704308"
    },
    {
        "title": "Рынок  Элерон ",
        "lat": "50.4138637",
        "lng": "30.3963187"
    },
    {
        "title": "Промислово-продуктовий ринок",
        "lat": "50.4147946",
        "lng": "30.3956746"
    },
    {
        "title": "Промислово-продуктовий ринок",
        "lat": "50.4143783",
        "lng": "30.395676"
    },
    {
        "title": "Куреневский рынок",
        "lat": "50.4965397",
        "lng": "30.4602331"
    },
    {
        "title": "Птичий рынок",
        "lat": "50.4970498",
        "lng": "30.4611129"
    },
    {
        "title": "Рынок секонд-хенд",
        "lat": "50.399239",
        "lng": "30.6314537"
    },
    {
        "title": "Рынок «Юность» («Лесной»)",
        "lat": "50.470057",
        "lng": "30.6194225"
    },
    {
        "title": "Рынок  Десна ",
        "lat": "50.4947771",
        "lng": "30.5823433"
    },
    {
        "title": "Мебельный рынок",
        "lat": "50.4684315",
        "lng": "30.623875"
    },
    {
        "title": "Детский мир",
        "lat": "50.4322081",
        "lng": "30.3853123"
    },
    {
        "title": "Рынок  Колибрис ",
        "lat": "50.4296375",
        "lng": "30.3847235"
    },
    {
        "title": "Рынок  Автозапчасти на Окружной ",
        "lat": "50.4120815",
        "lng": "30.3855577"
    },
    {
        "title": "Рынок",
        "lat": "50.4725492",
        "lng": "30.4050117"
    },
    {
        "title": "Рынок  Позняки ",
        "lat": "50.4123327",
        "lng": "30.6449327"
    },
    {
        "title": "Рынок  Днепр ",
        "lat": "50.4213909",
        "lng": "30.3824061"
    },
    {
        "title": "Гастроном",
        "lat": "50.4412438",
        "lng": "30.3833962"
    },
    {
        "title": "Рынок «Минский»",
        "lat": "50.511581",
        "lng": "30.4967487"
    },
    {
        "title": "Минимаркет «Бі-маркет»",
        "lat": "50.4682848",
        "lng": "30.6331604"
    },
    {
        "title": "Супермаркет  Островок ",
        "lat": "50.4355593",
        "lng": "30.378018"
    },
    {
        "title": "Рынок  Святошино ",
        "lat": "50.4592765",
        "lng": "30.3871"
    },
    {
        "title": "Дарницкий хозяйственный рынок",
        "lat": "50.4316125",
        "lng": "30.6527407"
    },
    {
        "title": "Дарницкий продуктовый рынок",
        "lat": "50.432064",
        "lng": "30.6528449"
    },
    {
        "title": "Рынок",
        "lat": "50.4774586",
        "lng": "30.6275546"
    },
    {
        "title": "Центр торговли «Дарынок»",
        "lat": "50.4609609",
        "lng": "30.6427453"
    },
    {
        "title": "Крытый павильон Дарницкого рынка",
        "lat": "50.4298272",
        "lng": "30.6539878"
    },
    {
        "title": "Торговля молокопродуктами",
        "lat": "50.4322824",
        "lng": "30.6539074"
    },
    {
        "title": "Рынок «Садовод»",
        "lat": "50.462742",
        "lng": "30.6419389"
    },
    {
        "title": "Строительный рынок  Харьковский ",
        "lat": "50.4035906",
        "lng": "30.6501494"
    },
    {
        "title": "Дарницкий рынок",
        "lat": "50.4301784",
        "lng": "30.6545429"
    },
    {
        "title": "Мостицкий рынок",
        "lat": "50.5049352",
        "lng": "30.4488283"
    },
    {
        "title": "Радиорынок  Харьковский ",
        "lat": "50.4027696",
        "lng": "30.6502568"
    },
    {
        "title": "Хозяйственный рынок  Харьковский ",
        "lat": "50.4020315",
        "lng": "30.6500221"
    },
    {
        "title": "Мебельный рынок",
        "lat": "50.494975",
        "lng": "30.6057027"
    },
    {
        "title": "Торговый центр «Маяк»",
        "lat": "50.4627356",
        "lng": "30.6444106"
    },
    {
        "title": "Рынок",
        "lat": "50.4026376",
        "lng": "30.6525366"
    },
    {
        "title": "Рынок  Полюс ",
        "lat": "50.5025033",
        "lng": "30.5929313"
    },
    {
        "title": "Рынок «Вырлица»",
        "lat": "50.4027162",
        "lng": "30.6532836"
    },
    {
        "title": "Вишнёвский рынок",
        "lat": "50.3910614",
        "lng": "30.3819367"
    },
    {
        "title": "Рынок хозяйственных товаров и строительных материалов",
        "lat": "50.4967794",
        "lng": "30.6066696"
    },
    {
        "title": "Рынок",
        "lat": "50.4653004",
        "lng": "30.6450346"
    },
    {
        "title": "Торговые ряды",
        "lat": "50.3913374",
        "lng": "30.3808114"
    },
    {
        "title": "Рынок «Троещина»",
        "lat": "50.4945482",
        "lng": "30.611356"
    },
    {
        "title": "Продуктовый рынок",
        "lat": "50.4961489",
        "lng": "30.6087202"
    },
    {
        "title": "Рынок",
        "lat": "50.415656",
        "lng": "30.6597442"
    },
    {
        "title": "Авторынок  Центральный ",
        "lat": "50.3354768",
        "lng": "30.5502212"
    },
    {
        "title": "Рынок",
        "lat": "50.48232",
        "lng": "30.6317765"
    },
    {
        "title": "Оптовые продуктовые ряды",
        "lat": "50.3347047",
        "lng": "30.547995"
    },
    {
        "title": "Ринок  Шлях ",
        "lat": "50.4279562",
        "lng": "30.3656638"
    },
    {
        "title": "Продовольственный рынок",
        "lat": "50.4827699",
        "lng": "30.395147"
    },
    {
        "title": "Рынок",
        "lat": "50.520881",
        "lng": "30.5142333"
    },
    {
        "title": "Мебельный рынок",
        "lat": "50.4973877",
        "lng": "30.6131109"
    },
    {
        "title": "Рынок  Радосинь ",
        "lat": "50.5026066",
        "lng": "30.6038801"
    },
    {
        "title": "Авторынок",
        "lat": "50.4993335",
        "lng": "30.6111798"
    },
    {
        "title": "Борщаговский рынок",
        "lat": "50.4304406",
        "lng": "30.3641295"
    },
    {
        "title": "Рынок «Бережанский»",
        "lat": "50.5156642",
        "lng": "30.457009"
    },
    {
        "title": "Продуктово-хозяйственный рынок",
        "lat": "50.5008623",
        "lng": "30.6114088"
    },
    {
        "title": "Рынок  Люкс ",
        "lat": "50.5229054",
        "lng": "30.4946176"
    },
    {
        "title": "Маркет+",
        "lat": "50.4255212",
        "lng": "30.6693837"
    },
    {
        "title": "Рынок «Оболонь»",
        "lat": "50.5243616",
        "lng": "30.5009758"
    },
    {
        "title": "Овощной павильон",
        "lat": "50.5245108",
        "lng": "30.5015511"
    },
    {
        "title": "Обойный рынок",
        "lat": "50.4376922",
        "lng": "30.3603025"
    },
    {
        "title": "Рынок",
        "lat": "50.4074288",
        "lng": "30.6670609"
    },
    {
        "title": "Оптовый рынок сельхозпродукции  Фермер ",
        "lat": "50.5014175",
        "lng": "30.6169813"
    },
    {
        "title": "Рынок",
        "lat": "50.3825635",
        "lng": "30.3736111"
    },
    {
        "title": "Продуктово-хозяйственный рынок",
        "lat": "50.5084492",
        "lng": "30.6090581"
    },
    {
        "title": "Рынок «Виноградарь»",
        "lat": "50.5106053",
        "lng": "30.4246455"
    },
    {
        "title": "Новый ринок",
        "lat": "50.3836273",
        "lng": "30.36767"
    },
    {
        "title": "Рынок  Полесье ",
        "lat": "50.5212085",
        "lng": "30.4513818"
    },
    {
        "title": "Ряд столів для продажу",
        "lat": "50.3257652",
        "lng": "30.561237"
    },
    {
        "title": "Рынок",
        "lat": "50.5087176",
        "lng": "30.620959"
    },
    {
        "title": "Рынок",
        "lat": "50.5132521",
        "lng": "30.6137096"
    },
    {
        "title": "Рынок  Троицкий ",
        "lat": "50.4684013",
        "lng": "30.3551559"
    },
    {
        "title": "Продуктово-хозяйственный рынок",
        "lat": "50.5194349",
        "lng": "30.6085431"
    },
    {
        "title": "Продуктовий ринок",
        "lat": "50.5171784",
        "lng": "30.6151114"
    },
    {
        "title": "Рынок",
        "lat": "50.5168434",
        "lng": "30.6168083"
    },
    {
        "title": "Рынок  Иллис ",
        "lat": "50.4611514",
        "lng": "30.3460299"
    },
    {
        "title": "Продуктовый рынок",
        "lat": "50.5242473",
        "lng": "30.6202885"
    },
    {
        "title": "Продуктовый рынок",
        "lat": "50.5304574",
        "lng": "30.6112415"
    },
    {
        "title": "Рынок",
        "lat": "50.48903",
        "lng": "30.332863"
    },
    {
        "title": "Строительный базар",
        "lat": "50.3760236",
        "lng": "30.7056981"
    },
    {
        "title": "Продуктовый магазин",
        "lat": "50.3192526",
        "lng": "30.3821808"
    },
    {
        "title": "Пекарня на ТЭЦ-6",
        "lat": "50.5300345",
        "lng": "30.6658418"
    },
    {
        "title": "Базарчик",
        "lat": "50.5553464",
        "lng": "30.6453937"
    },
    {
        "title": "магазин «Провинция»",
        "lat": "50.3357268",
        "lng": "30.7139191"
    },
    {
        "title": "магазин",
        "lat": "50.3277807",
        "lng": "30.7047566"
    },
    {
        "title": "Рынок ЧП Виктория - земля продана",
        "lat": "50.3438788",
        "lng": "30.3016716"
    },
    {
        "title": "Базарчик",
        "lat": "50.5856657",
        "lng": "30.5270528"
    },
    {
        "title": "Армянский рынок - земля пока в аренде",
        "lat": "50.342066",
        "lng": "30.3008133"
    },
    {
        "title": "Районный дом культуры  Энергетик ",
        "lat": "50.58675",
        "lng": "30.4882031"
    },
    {
        "title": "Базар",
        "lat": "50.590148",
        "lng": "30.4866314"
    },
    {
        "title": "Базар",
        "lat": "50.4980786",
        "lng": "30.7584759"
    },
    {
        "title": "Рынок",
        "lat": "50.5596004",
        "lng": "30.6858122"
    },
    {
        "title": "Колхозный Рынок",
        "lat": "50.3148664",
        "lng": "30.306226"
    },
    {
        "title": "Рынок  Молодежный ",
        "lat": "50.3351225",
        "lng": "30.2829095"
    },
    {
        "title": "Привокзальный рынок",
        "lat": "50.3164378",
        "lng": "30.2985871"
    },
    {
        "title": "Базарчик",
        "lat": "50.31599",
        "lng": "30.2980023"
    },
    {
        "title": "Рынок",
        "lat": "50.5007879",
        "lng": "30.7722732"
    },
    {
        "title": "дрібний ринок",
        "lat": "50.5002045",
        "lng": "30.7729116"
    },
    {
        "title": "Рынок",
        "lat": "50.3912212",
        "lng": "30.2343213"
    },
    {
        "title": "Рынок",
        "lat": "50.3790639",
        "lng": "30.7928324"
    },
    {
        "title": "Зоомагазин, Ветаптека,Зоолюкс",
        "lat": "50.5052901",
        "lng": "30.7830745"
    },
    {
        "title": "Базар",
        "lat": "50.5107746",
        "lng": "30.7891818"
    },
    {
        "title": "Рынок",
        "lat": "50.5207292",
        "lng": "30.2469276"
    },
    {
        "title": "Ирпенский центральный рынок",
        "lat": "50.5227348",
        "lng": "30.2390371"
    },
    {
        "title": "Базар",
        "lat": "50.5220799",
        "lng": "30.7906195"
    },
    {
        "title": "Магазин",
        "lat": "50.2893632",
        "lng": "30.2697962"
    },
    {
        "title": "Базар",
        "lat": "50.5672112",
        "lng": "30.2705955"
    },
    {
        "title": "Рынок",
        "lat": "50.2580798",
        "lng": "30.307154"
    },
    {
        "title": "New marketplace",
        "lat": "50.5475561",
        "lng": "30.2178605"
    },
    {
        "title": "Старый базар",
        "lat": "50.5486001",
        "lng": "30.21616"
    },
    {
        "title": "Місце торгівлі овочами та фруктами",
        "lat": "50.5328588",
        "lng": "30.1992971"
    },
    {
        "title": "Магазин  Інна ",
        "lat": "50.6466722",
        "lng": "30.4192313"
    },
    {
        "title": "Рынок",
        "lat": "50.3921515",
        "lng": "30.8751694"
    },
    {
        "title": "Крытый прилавок рынка",
        "lat": "50.2488471",
        "lng": "30.7724461"
    },
    {
        "title": "Торговая база",
        "lat": "50.5306398",
        "lng": "30.1688164"
    },
    {
        "title": "Базарчик",
        "lat": "50.2787503",
        "lng": "30.8253808"
    },
    {
        "title": "Западынский рынок",
        "lat": "50.2111787",
        "lng": "30.3167832"
    },
    {
        "title": "Хозяйственный и продуктовый рынок с. Калиновка",
        "lat": "50.2262155",
        "lng": "30.2275823"
    },
    {
        "title": "Калиновский рынок",
        "lat": "50.2264593",
        "lng": "30.2256481"
    },
    {
        "title": "Marketplace",
        "lat": "50.1815856",
        "lng": "30.3128591"
    },
    {
        "title": "базарчик",
        "lat": "50.3625158",
        "lng": "30.9371459"
    },
    {
        "title": "Рынок  Новый ",
        "lat": "50.3575435",
        "lng": "30.937441"
    },
    {
        "title": "М'ясний павільйон",
        "lat": "50.1735604",
        "lng": "30.3258302"
    },
    {
        "title": "Центральный рынок",
        "lat": "50.1731532",
        "lng": "30.3259026"
    },
    {
        "title": "Рынок  Благодать ",
        "lat": "50.1719534",
        "lng": "30.3263361"
    },
    {
        "title": "Базарчик",
        "lat": "50.6800077",
        "lng": "30.7168333"
    },
    {
        "title": "Ринок",
        "lat": "50.5919709",
        "lng": "30.8992195"
    },
    {
        "title": "Рынок",
        "lat": "50.1302834",
        "lng": "30.6332838"
    },
    {
        "title": "Продуктовый базар",
        "lat": "50.4312033",
        "lng": "30.0305995"
    },
    {
        "title": "Хозяйственный рынок",
        "lat": "50.1316641",
        "lng": "30.6601435"
    },
    {
        "title": "Рыночно-торговый комплекс",
        "lat": "50.1271592",
        "lng": "30.6501576"
    },
    {
        "title": "Рынок  Ранковый ",
        "lat": "50.126795",
        "lng": "30.649734"
    },
    {
        "title": "Ринок",
        "lat": "50.6775372",
        "lng": "30.2174127"
    },
    {
        "title": "Городской рынок",
        "lat": "50.1469966",
        "lng": "30.747633"
    },
    {
        "title": "Рынок",
        "lat": "50.1464947",
        "lng": "30.7482701"
    },
    {
        "title": "Рынок",
        "lat": "50.14568",
        "lng": "30.7495549"
    },
    {
        "title": "Рынок",
        "lat": "50.2229504",
        "lng": "30.9003162"
    },
    {
        "title": "Оптовая база  Омелла ",
        "lat": "50.1159161",
        "lng": "30.6338622"
    },
    {
        "title": "Продуктовый магазин",
        "lat": "50.1257581",
        "lng": "30.7644989"
    },
    {
        "title": "Спонтанный рынок",
        "lat": "50.1153842",
        "lng": "30.7758604"
    },
    {
        "title": "Рынок",
        "lat": "50.1808762",
        "lng": "30.10822"
    },
    {
        "title": "Рынок",
        "lat": "50.644062",
        "lng": "29.935963"
    },
    {
        "title": "Торговый комплекс (рынок)  Вокзальный ",
        "lat": "50.6306027",
        "lng": "29.8887455"
    },
    {
        "title": "Базар",
        "lat": "50.4617824",
        "lng": "29.8126764"
    },
    {
        "title": "Рынок",
        "lat": "50.4612325",
        "lng": "29.7980154"
    },
    {
        "title": "Базарна площа,магазин -*чорнобильський*",
        "lat": "50.2916081",
        "lng": "29.7594954"
    },
    {
        "title": "Рынок",
        "lat": "50.0787283",
        "lng": "29.9312747"
    },
    {
        "title": "Базар",
        "lat": "50.078627",
        "lng": "29.9115228"
    },
    {
        "title": "Крытый рынок",
        "lat": "50.0774304",
        "lng": "29.9092108"
    },
    {
        "title": "Рынок",
        "lat": "49.9466224",
        "lng": "30.1825708"
    },
    {
        "title": "Рынок",
        "lat": "49.9235326",
        "lng": "30.1488379"
    },
    {
        "title": "Рынок Глушки",
        "lat": "49.889104",
        "lng": "30.1775926"
    },
    {
        "title": "Ринок  Критий ринок ",
        "lat": "49.8656995",
        "lng": "30.8256653"
    },
    {
        "title": "Рынок  Базар ",
        "lat": "49.8623487",
        "lng": "30.8276796"
    },
    {
        "title": "Рынок",
        "lat": "50.0062436",
        "lng": "29.8433894"
    },
    {
        "title": "Колхозный рынок",
        "lat": "50.7003991",
        "lng": "29.5969105"
    },
    {
        "title": "ринок",
        "lat": "49.9159619",
        "lng": "29.8124206"
    }
]