[
    {
        "title": "Полицейский скверик",
        "lat": "50.4276017",
        "lng": "30.5149475"
    },
    {
        "title": "Сквер",
        "lat": "50.4183746",
        "lng": "30.5232838"
    },
    {
        "title": "Сквер",
        "lat": "50.4123713",
        "lng": "30.5251168"
    },
    {
        "title": "Парк им. Т. Г. Шевченко",
        "lat": "50.4417271",
        "lng": "30.5130699"
    },
    {
        "title": "Мемориальный парк академика Богомольца",
        "lat": "50.4405598",
        "lng": "30.5290183"
    },
    {
        "title": "Место для отдыха с лавочками",
        "lat": "50.425311",
        "lng": "30.4870242"
    },
    {
        "title": "Парк трипольской культуры",
        "lat": "50.4080182",
        "lng": "30.5113237"
    },
    {
        "title": "Арка",
        "lat": "50.4439555",
        "lng": "30.508824"
    },
    {
        "title": "Бульвар Тараса Шевченко",
        "lat": "50.4443875",
        "lng": "30.5075472"
    },
    {
        "title": "Парк «Лыбедской»",
        "lat": "50.4092422",
        "lng": "30.5286359"
    },
    {
        "title": "Соломенский лесопарк (ландшафтный парк)",
        "lat": "50.4259757",
        "lng": "30.4845714"
    },
    {
        "title": "Сад возле Дома с химерами",
        "lat": "50.4447744",
        "lng": "30.528341"
    },
    {
        "title": "Детская площадка с пандами",
        "lat": "50.417855",
        "lng": "30.5479386"
    },
    {
        "title": "Золотоворотский сквер",
        "lat": "50.4488116",
        "lng": "30.5133648"
    },
    {
        "title": "Сквер с детской площадкой",
        "lat": "50.4197616",
        "lng": "30.4800691"
    },
    {
        "title": "Сквер",
        "lat": "50.4186729",
        "lng": "30.5495007"
    },
    {
        "title": "Сквер",
        "lat": "50.4379723",
        "lng": "30.5467959"
    },
    {
        "title": "Парк ЖК «Новопечерские Липки»",
        "lat": "50.4119994",
        "lng": "30.5476758"
    },
    {
        "title": "Сквер",
        "lat": "50.4514005",
        "lng": "30.5140368"
    },
    {
        "title": "Фонтан",
        "lat": "50.4456479",
        "lng": "30.5410588"
    },
    {
        "title": "Мариинский парк",
        "lat": "50.446649",
        "lng": "30.5407771"
    },
    {
        "title": "Городской сад",
        "lat": "50.4498855",
        "lng": "30.5349513"
    },
    {
        "title": "Бульвар",
        "lat": "50.4526587",
        "lng": "30.5247772"
    },
    {
        "title": "ЦПКиО",
        "lat": "50.4478808",
        "lng": "30.5408227"
    },
    {
        "title": "Бульвар",
        "lat": "50.4477285",
        "lng": "30.4869801"
    },
    {
        "title": "Сквер",
        "lat": "50.4351988",
        "lng": "30.4730084"
    },
    {
        "title": "Сквер на Владимирском проезде",
        "lat": "50.4540794",
        "lng": "30.5190711"
    },
    {
        "title": "Детская площадка",
        "lat": "50.4543841",
        "lng": "30.519652"
    },
    {
        "title": "Парк им. Н. А. Островского",
        "lat": "50.4303824",
        "lng": "30.4691018"
    },
    {
        "title": "Парк «Аскольдова Могила»",
        "lat": "50.4457828",
        "lng": "30.5495882"
    },
    {
        "title": "Павловский сад",
        "lat": "50.453274",
        "lng": "30.4954559"
    },
    {
        "title": "Парк Вечной Славы",
        "lat": "50.4396537",
        "lng": "30.556254"
    },
    {
        "title": "Горный сад",
        "lat": "50.4171953",
        "lng": "30.5594426"
    },
    {
        "title": "Киевский парк современной скульптуры и инсталляции  Пейзажная аллея ",
        "lat": "50.4563941",
        "lng": "30.5130243"
    },
    {
        "title": "Детский ландшафтный парк  Пейзажная аллея ",
        "lat": "50.4566353",
        "lng": "30.5155147"
    },
    {
        "title": "Крещатый парк",
        "lat": "50.4538072",
        "lng": "30.5347473"
    },
    {
        "title": "Парк  Владимирская Горка ",
        "lat": "50.4565323",
        "lng": "30.5236566"
    },
    {
        "title": "Печерский ландшафтный парк",
        "lat": "50.4287194",
        "lng": "30.5636279"
    },
    {
        "title": "Территория Национальной академии изобразительного искуства и архитектуры",
        "lat": "50.4588991",
        "lng": "30.5076652"
    },
    {
        "title": "Национальный ботанический сад им. Н. Н. Гришко НАН Украины",
        "lat": "50.413682",
        "lng": "30.5629943"
    },
    {
        "title": "Магнолии",
        "lat": "50.4145171",
        "lng": "30.5638039"
    },
    {
        "title": "Аллея в честь Симоненко Валентина Константиновича",
        "lat": "50.4330719",
        "lng": "30.5661393"
    },
    {
        "title": "Парк «Первомайский»",
        "lat": "50.4399839",
        "lng": "30.465694"
    },
    {
        "title": "Наводницкий парк",
        "lat": "50.4280754",
        "lng": "30.5693518"
    },
    {
        "title": "Спортивная база Динамо ",
        "lat": "50.4520171",
        "lng": "30.5531461"
    },
    {
        "title": "Голосеевский парк им. Максима Рыльского",
        "lat": "50.3901401",
        "lng": "30.5029344"
    },
    {
        "title": "Сквер",
        "lat": "50.4630343",
        "lng": "30.5181792"
    },
    {
        "title": "Лысая гора",
        "lat": "50.3950429",
        "lng": "30.5471648"
    },
    {
        "title": "Пешеходная зона",
        "lat": "50.4383918",
        "lng": "30.4583233"
    },
    {
        "title": "Сквер",
        "lat": "50.4598041",
        "lng": "30.4861459"
    },
    {
        "title": "Сквер",
        "lat": "50.4643794",
        "lng": "30.5176146"
    },
    {
        "title": "Кадетская роща",
        "lat": "50.4406193",
        "lng": "30.4583877"
    },
    {
        "title": "Сквер Мартиросяна",
        "lat": "50.4286875",
        "lng": "30.4539299"
    },
    {
        "title": "Сквер имени Гейдара Алиева",
        "lat": "50.461749",
        "lng": "30.4901974"
    },
    {
        "title": "Сквер имени Ушинского",
        "lat": "50.4352398",
        "lng": "30.4543885"
    },
    {
        "title": "Сквер",
        "lat": "50.4628434",
        "lng": "30.4917638"
    },
    {
        "title": "Детская площадка",
        "lat": "50.3871606",
        "lng": "30.5007264"
    },
    {
        "title": "Винницкий парк",
        "lat": "50.4172995",
        "lng": "30.4528945"
    },
    {
        "title": "Бульвар",
        "lat": "50.4324874",
        "lng": "30.4513067"
    },
    {
        "title": "Сквер",
        "lat": "50.4665969",
        "lng": "30.5231001"
    },
    {
        "title": "Венецианский остров (Предмостная слободка)",
        "lat": "50.4385409",
        "lng": "30.5777943"
    },
    {
        "title": "Днепровский парк",
        "lat": "50.4637419",
        "lng": "30.5444662"
    },
    {
        "title": "Сквер",
        "lat": "50.4684889",
        "lng": "30.5109493"
    },
    {
        "title": "Зоопарк",
        "lat": "50.455581",
        "lng": "30.4651683"
    },
    {
        "title": "Площадь Красной Пресни",
        "lat": "50.4691144",
        "lng": "30.5098835"
    },
    {
        "title": "Парк КПИ",
        "lat": "50.4514893",
        "lng": "30.4592675"
    },
    {
        "title": "Гидропарк",
        "lat": "50.4457571",
        "lng": "30.5755198"
    },
    {
        "title": "«Поляна»",
        "lat": "50.4472639",
        "lng": "30.4541015"
    },
    {
        "title": "Сквер в сосновой роще",
        "lat": "50.4498361",
        "lng": "30.4550242"
    },
    {
        "title": "Сквер перед 5 корпусом",
        "lat": "50.3827082",
        "lng": "30.495282"
    },
    {
        "title": "Дубовая роща",
        "lat": "50.4448044",
        "lng": "30.4481577"
    },
    {
        "title": "Парк Моряков",
        "lat": "50.4734915",
        "lng": "30.5268323"
    },
    {
        "title": "Парк  Киев в миниатюре ",
        "lat": "50.4487457",
        "lng": "30.5811134"
    },
    {
        "title": "Парк им. А. С. Пушкина",
        "lat": "50.4565613",
        "lng": "30.4547023"
    },
    {
        "title": "Парк Котляревского",
        "lat": "50.4676104",
        "lng": "30.473282"
    },
    {
        "title": "Парк «Вербная роща»",
        "lat": "50.4241472",
        "lng": "30.5917954"
    },
    {
        "title": "Дача Хрущёва",
        "lat": "50.4689061",
        "lng": "30.4748618"
    },
    {
        "title": "Русановский парк",
        "lat": "50.4393136",
        "lng": "30.5901701"
    },
    {
        "title": "Яблоневый сад Александра Довженко",
        "lat": "50.4546034",
        "lng": "30.4498596"
    },
    {
        "title": "Сквер",
        "lat": "50.4518275",
        "lng": "30.4456687"
    },
    {
        "title": "Парковая зона Национальной академии прокуратуры Украины",
        "lat": "50.4677401",
        "lng": "30.4663297"
    },
    {
        "title": "Сквер",
        "lat": "50.4215328",
        "lng": "30.4329845"
    },
    {
        "title": "Парк",
        "lat": "50.4751388",
        "lng": "30.4792392"
    },
    {
        "title": "Покол",
        "lat": "50.3809045",
        "lng": "30.5628168"
    },
    {
        "title": "Центр народоведения «Мамаева Слобода» ( Казак Мамай )",
        "lat": "50.435549",
        "lng": "30.4289531"
    },
    {
        "title": "Жулянский парк",
        "lat": "50.3938345",
        "lng": "30.4433592"
    },
    {
        "title": "Парк  Отрадный ",
        "lat": "50.4328496",
        "lng": "30.4274028"
    },
    {
        "title": "Парк «Прибережний»",
        "lat": "50.4100082",
        "lng": "30.6002694"
    },
    {
        "title": "Заросли",
        "lat": "50.4623971",
        "lng": "30.5840878"
    },
    {
        "title": "Парк  Теремки ",
        "lat": "50.3815663",
        "lng": "30.4574488"
    },
    {
        "title": "Сквер ",
        "lat": "50.4582058",
        "lng": "30.5898079"
    },
    {
        "title": "Сквер дружбы  Киева и Москвы",
        "lat": "50.3828919",
        "lng": "30.4537019"
    },
    {
        "title": "Парк  Тельбин ",
        "lat": "50.4287781",
        "lng": "30.6058743"
    },
    {
        "title": "Сквер",
        "lat": "50.4487072",
        "lng": "30.5994585"
    },
    {
        "title": "Национальный природный парк «Голосеевский»",
        "lat": "50.3671712",
        "lng": "30.5083551"
    },
    {
        "title": "Парк «Орлёнок»",
        "lat": "50.444005",
        "lng": "30.4262227"
    },
    {
        "title": "Репьяхов яр",
        "lat": "50.4772535",
        "lng": "30.4680704"
    },
    {
        "title": "Сквер",
        "lat": "50.4286807",
        "lng": "30.42092"
    },
    {
        "title": "Сквер на углу улицы Фрунзе и Подольского спуска. Бювет.",
        "lat": "50.4817154",
        "lng": "30.4771765"
    },
    {
        "title": "Парк «Диск»",
        "lat": "50.3691269",
        "lng": "30.5513155"
    },
    {
        "title": "Сквер у мемориала в Бабьем яру",
        "lat": "50.471635",
        "lng": "30.4494117"
    },
    {
        "title": "Труханов остров",
        "lat": "50.4851992",
        "lng": "30.5511704"
    },
    {
        "title": "Бабий яр",
        "lat": "50.4792745",
        "lng": "30.4596913"
    },
    {
        "title": "Детская железная дорога",
        "lat": "50.467051",
        "lng": "30.4379707"
    },
    {
        "title": "Сырецкий парк",
        "lat": "50.4673183",
        "lng": "30.4379975"
    },
    {
        "title": "Парк отдыха",
        "lat": "50.4765811",
        "lng": "30.4531252"
    },
    {
        "title": "Долина Бабьего Яра",
        "lat": "50.4817522",
        "lng": "30.4623262"
    },
    {
        "title": "Сад камней",
        "lat": "50.4911989",
        "lng": "30.5284872"
    },
    {
        "title": "Аллея ВДНХ (вход с ул. Ак. Заболотного)",
        "lat": "50.3653358",
        "lng": "30.4709022"
    },
    {
        "title": "Куреневский парк",
        "lat": "50.4882279",
        "lng": "30.471332"
    },
    {
        "title": "Сквер",
        "lat": "50.3700452",
        "lng": "30.4513925"
    },
    {
        "title": "Сквер",
        "lat": "50.4739524",
        "lng": "30.436466"
    },
    {
        "title": "Парк «Победа»",
        "lat": "50.4642942",
        "lng": "30.6056253"
    },
    {
        "title": "Сквер у кинотеатра  Братислава ",
        "lat": "50.496395",
        "lng": "30.5159707"
    },
    {
        "title": "Парк «Нивки»",
        "lat": "50.4627972",
        "lng": "30.4193548"
    },
    {
        "title": "Парк отдыха  Оболонь  в урочище Наталка",
        "lat": "50.4970769",
        "lng": "30.5243111"
    },
    {
        "title": "Зона отдыха",
        "lat": "50.4883252",
        "lng": "30.458259"
    },
    {
        "title": "Парковая зона отдыха",
        "lat": "50.4565835",
        "lng": "30.6189166"
    },
    {
        "title": "Зона отдыха «Радуга»",
        "lat": "50.4846282",
        "lng": "30.5853989"
    },
    {
        "title": "Парковая зона отдыха",
        "lat": "50.4588324",
        "lng": "30.6189286"
    },
    {
        "title": "Парк «Сырецкая Роща (Дубки)»",
        "lat": "50.4735585",
        "lng": "30.4244409"
    },
    {
        "title": "Сквер Дружбы",
        "lat": "50.5005337",
        "lng": "30.5024779"
    },
    {
        "title": "Сырецкий лесопарк",
        "lat": "50.4780319",
        "lng": "30.4283845"
    },
    {
        "title": "Парковая зона отдыха",
        "lat": "50.4829745",
        "lng": "30.4364322"
    },
    {
        "title": "Волчья гора",
        "lat": "50.4587027",
        "lng": "30.6222331"
    },
    {
        "title": "Сквер с фонтаном",
        "lat": "50.4035778",
        "lng": "30.628893"
    },
    {
        "title": "Парк",
        "lat": "50.4946542",
        "lng": "30.4611236"
    },
    {
        "title": "Орешник",
        "lat": "50.3508415",
        "lng": "30.491116"
    },
    {
        "title": "Сквер",
        "lat": "50.4775063",
        "lng": "30.6041095"
    },
    {
        "title": "Сквер Партизанской славы",
        "lat": "50.4108294",
        "lng": "30.3961461"
    },
    {
        "title": "Парк Дружбы Народов",
        "lat": "50.5010976",
        "lng": "30.5426037"
    },
    {
        "title": "Теремковский лесопарк",
        "lat": "50.3597196",
        "lng": "30.451119"
    },
    {
        "title": "Лиственничная роща",
        "lat": "50.496067",
        "lng": "30.457229"
    },
    {
        "title": "Парк «Аврора»",
        "lat": "50.4850852",
        "lng": "30.5984552"
    },
    {
        "title": "Сквер",
        "lat": "50.4704597",
        "lng": "30.4105304"
    },
    {
        "title": "Зеленая зона",
        "lat": "50.4189198",
        "lng": "30.3894871"
    },
    {
        "title": "Парк «Березовая роща»",
        "lat": "50.4965652",
        "lng": "30.4529321"
    },
    {
        "title": "Санный спуск",
        "lat": "50.4966386",
        "lng": "30.4529348"
    },
    {
        "title": "Сырецкий дендропарк",
        "lat": "50.4824458",
        "lng": "30.423417"
    },
    {
        "title": "Парк им. Генерала Потапова",
        "lat": "50.4245472",
        "lng": "30.3873467"
    },
    {
        "title": "Рогозов яр",
        "lat": "50.4849615",
        "lng": "30.4269576"
    },
    {
        "title": "Лесопарк",
        "lat": "50.3593655",
        "lng": "30.4400037"
    },
    {
        "title": "Парк «Позняки»",
        "lat": "50.4006605",
        "lng": "30.6372508"
    },
    {
        "title": "Сквер",
        "lat": "50.4720716",
        "lng": "30.6232763"
    },
    {
        "title": "Феофания",
        "lat": "50.3448086",
        "lng": "30.4851293"
    },
    {
        "title": "Яблоневый сад юнных натуралистов",
        "lat": "50.4995084",
        "lng": "30.4520389"
    },
    {
        "title": "Парк ДШК",
        "lat": "50.4579411",
        "lng": "30.6358373"
    },
    {
        "title": "Парк  Юность ",
        "lat": "50.4270421",
        "lng": "30.3833074"
    },
    {
        "title": "Будинок лісника",
        "lat": "50.427954",
        "lng": "30.3823761"
    },
    {
        "title": "Сквер",
        "lat": "50.5108186",
        "lng": "30.505895"
    },
    {
        "title": "Сквер",
        "lat": "50.4236021",
        "lng": "30.6479743"
    },
    {
        "title": "Парк-памятник садово-паркового искусства «Феофания»",
        "lat": "50.3424144",
        "lng": "30.4895595"
    },
    {
        "title": "Привокзальный парк",
        "lat": "50.4302595",
        "lng": "30.648256"
    },
    {
        "title": "Парк  Интернациональный ",
        "lat": "50.4305883",
        "lng": "30.3808075"
    },
    {
        "title": "Бульвар",
        "lat": "50.4216522",
        "lng": "30.3805514"
    },
    {
        "title": "Сквер",
        "lat": "50.5111904",
        "lng": "30.500839"
    },
    {
        "title": "Северодарницкий лесопарк",
        "lat": "50.482864",
        "lng": "30.6151682"
    },
    {
        "title": "Проектное месторасположение парка  Борцов за свободу и независимости Украины .",
        "lat": "50.5036415",
        "lng": "30.5735269"
    },
    {
        "title": "Парк Киото",
        "lat": "50.4636988",
        "lng": "30.6364917"
    },
    {
        "title": "Сквер",
        "lat": "50.5026356",
        "lng": "30.4509258"
    },
    {
        "title": "Зона отдыха «Берёзка»",
        "lat": "50.4863998",
        "lng": "30.6144762"
    },
    {
        "title": "Вишнёвый парк / Парк «Веселка»",
        "lat": "50.4734062",
        "lng": "30.3984618"
    },
    {
        "title": "Сквер",
        "lat": "50.4826643",
        "lng": "30.4088579"
    },
    {
        "title": "Сквер",
        "lat": "50.4309532",
        "lng": "30.652408"
    },
    {
        "title": "Сквер по ул. Верховинной",
        "lat": "50.4543243",
        "lng": "30.3831383"
    },
    {
        "title": "Парк",
        "lat": "50.4971811",
        "lng": "30.59777"
    },
    {
        "title": "Сквер",
        "lat": "50.4272324",
        "lng": "30.6543807"
    },
    {
        "title": "Парк им. бронепоезда «Таращанец»",
        "lat": "50.4285833",
        "lng": "30.6546637"
    },
    {
        "title": "Парк «Урочище Совки»",
        "lat": "50.4410191",
        "lng": "30.3750519"
    },
    {
        "title": "Парк с бюветом",
        "lat": "50.4527283",
        "lng": "30.3788964"
    },
    {
        "title": "Парк дома культуры железнодорожников",
        "lat": "50.4277751",
        "lng": "30.6586897"
    },
    {
        "title": "ЖК  Святобор ",
        "lat": "50.4539485",
        "lng": "30.3766875"
    },
    {
        "title": "Парк им. Воинов-интернационалистов (Южный парк)",
        "lat": "50.4098822",
        "lng": "30.6569479"
    },
    {
        "title": "Парк",
        "lat": "50.4525226",
        "lng": "30.375781"
    },
    {
        "title": "Сквер",
        "lat": "50.5025929",
        "lng": "30.6018993"
    },
    {
        "title": "Парк",
        "lat": "50.3525966",
        "lng": "30.4198872"
    },
    {
        "title": "Казенный лес",
        "lat": "50.447088",
        "lng": "30.3684757"
    },
    {
        "title": "Парк «Кристерова горка»",
        "lat": "50.512061",
        "lng": "30.4470942"
    },
    {
        "title": "Парк",
        "lat": "50.5158807",
        "lng": "30.4596187"
    },
    {
        "title": "Деснянский парк",
        "lat": "50.5072142",
        "lng": "30.5968809"
    },
    {
        "title": "Кристерова горка",
        "lat": "50.5125701",
        "lng": "30.4466986"
    },
    {
        "title": "Сквер",
        "lat": "50.504884",
        "lng": "30.6026932"
    },
    {
        "title": "Ліс",
        "lat": "50.4272738",
        "lng": "30.3624013"
    },
    {
        "title": "Ліс",
        "lat": "50.4267714",
        "lng": "30.3621062"
    },
    {
        "title": "Сквер",
        "lat": "50.5047459",
        "lng": "30.424726"
    },
    {
        "title": "Центральный вход в Парк Партизанской Славы",
        "lat": "50.416268",
        "lng": "30.6671613"
    },
    {
        "title": "Сквер",
        "lat": "50.5228832",
        "lng": "30.4912099"
    },
    {
        "title": "Парк на въезде в Вишневое",
        "lat": "50.3966686",
        "lng": "30.3676324"
    },
    {
        "title": "Сквер",
        "lat": "50.506839",
        "lng": "30.6032806"
    },
    {
        "title": "Ліс",
        "lat": "50.4272071",
        "lng": "30.359416"
    },
    {
        "title": "Урочище Кристерова горка",
        "lat": "50.5152344",
        "lng": "30.4466611"
    },
    {
        "title": "Сквер",
        "lat": "50.5106667",
        "lng": "30.5976748"
    },
    {
        "title": "Дитяча площадка",
        "lat": "50.3837001",
        "lng": "30.3719123"
    },
    {
        "title": "An old oak tree",
        "lat": "50.3350454",
        "lng": "30.5828422"
    },
    {
        "title": "Парк Партизанской Славы",
        "lat": "50.4174528",
        "lng": "30.6725111"
    },
    {
        "title": "Администрация парка",
        "lat": "50.4154161",
        "lng": "30.6724763"
    },
    {
        "title": "Аллея (парк Славы)",
        "lat": "50.3867295",
        "lng": "30.3672046"
    },
    {
        "title": "Липовая роща",
        "lat": "50.5234544",
        "lng": "30.4673141"
    },
    {
        "title": "Быковнянский лес",
        "lat": "50.4821127",
        "lng": "30.6488567"
    },
    {
        "title": "Лес",
        "lat": "50.4328633",
        "lng": "30.3539506"
    },
    {
        "title": "Молодой сосняк",
        "lat": "50.4739183",
        "lng": "30.6569892"
    },
    {
        "title": "Парк отдыха «Чабаны»",
        "lat": "50.3423237",
        "lng": "30.4208837"
    },
    {
        "title": "Бульвар  Южный ",
        "lat": "50.3801202",
        "lng": "30.3701578"
    },
    {
        "title": "Сквер  Молодёжный ",
        "lat": "50.5080603",
        "lng": "30.6121695"
    },
    {
        "title": "Парк «Отца и сына» церкви «Спасение»",
        "lat": "50.3904636",
        "lng": "30.3621632"
    },
    {
        "title": "Парковая алея Южного микрорайона",
        "lat": "50.3813406",
        "lng": "30.3675896"
    },
    {
        "title": "Парк Кинь-Грусть",
        "lat": "50.5206031",
        "lng": "30.4437267"
    },
    {
        "title": "Парк детскогo садa",
        "lat": "50.4530939",
        "lng": "30.6734848"
    },
    {
        "title": "Сельский парк",
        "lat": "50.3707402",
        "lng": "30.374279"
    },
    {
        "title": "Кафе",
        "lat": "50.5311342",
        "lng": "30.5269476"
    },
    {
        "title": "Парк вдоль Минского шоссе",
        "lat": "50.5243616",
        "lng": "30.4525029"
    },
    {
        "title": "Сквер",
        "lat": "50.4563206",
        "lng": "30.3541705"
    },
    {
        "title": "Парк  Сосновый ",
        "lat": "50.4523056",
        "lng": "30.6782698"
    },
    {
        "title": "Сквер",
        "lat": "50.5112467",
        "lng": "30.6184083"
    },
    {
        "title": "УТБ ФК  Динамо  Киев",
        "lat": "50.3223814",
        "lng": "30.5668165"
    },
    {
        "title": "Парк-бульвар",
        "lat": "50.5120176",
        "lng": "30.4080104"
    },
    {
        "title": "Буферный парк  Виноградарь ",
        "lat": "50.5192929",
        "lng": "30.4154348"
    },
    {
        "title": "Дубовая посадка",
        "lat": "50.4251812",
        "lng": "30.3377795"
    },
    {
        "title": "Аллея",
        "lat": "50.5267939",
        "lng": "30.5996006"
    },
    {
        "title": "Сквер",
        "lat": "50.5199687",
        "lng": "30.6180757"
    },
    {
        "title": "Сквер перед школой",
        "lat": "50.4606526",
        "lng": "30.3417599"
    },
    {
        "title": "Аллея",
        "lat": "50.5297626",
        "lng": "30.5962479"
    },
    {
        "title": "Лес",
        "lat": "50.3664511",
        "lng": "30.3579282"
    },
    {
        "title": "Молодёжный парк",
        "lat": "50.5213594",
        "lng": "30.6237727"
    },
    {
        "title": "Сквер",
        "lat": "50.5236966",
        "lng": "30.6188536"
    },
    {
        "title": "Урочище Кирыково",
        "lat": "50.3035667",
        "lng": "30.5261993"
    },
    {
        "title": "Государственный заказник  Жуков остров ",
        "lat": "50.3155605",
        "lng": "30.6004213"
    },
    {
        "title": "Центральный парк",
        "lat": "50.4892894",
        "lng": "30.3339252"
    },
    {
        "title": "Островок",
        "lat": "50.3167196",
        "lng": "30.6509904"
    },
    {
        "title": "Сосновый парк и пляж",
        "lat": "50.5684651",
        "lng": "30.5357802"
    },
    {
        "title": "Ліс",
        "lat": "50.5710067",
        "lng": "30.4785955"
    },
    {
        "title": "Ворота в парк  Пуща-Водица ",
        "lat": "50.5349233",
        "lng": "30.3552447"
    },
    {
        "title": "Парк  Пуща-Водица ",
        "lat": "50.533995",
        "lng": "30.353363"
    },
    {
        "title": "Парк отдыха",
        "lat": "50.580394",
        "lng": "30.4830103"
    },
    {
        "title": "Лес",
        "lat": "50.5796377",
        "lng": "30.4598951"
    },
    {
        "title": "Роща",
        "lat": "50.266804",
        "lng": "30.5579835"
    },
    {
        "title": "Тарасовский парк",
        "lat": "50.3392774",
        "lng": "30.2967417"
    },
    {
        "title": "Парк",
        "lat": "50.5911896",
        "lng": "30.5014331"
    },
    {
        "title": "База отдыха семейного типа",
        "lat": "50.5523461",
        "lng": "30.3399789"
    },
    {
        "title": "Парк Победы",
        "lat": "50.3261591",
        "lng": "30.2883249"
    },
    {
        "title": "Ліс",
        "lat": "50.4039257",
        "lng": "30.236797"
    },
    {
        "title": "Парк имени Т. Г. Шевченко",
        "lat": "50.4996073",
        "lng": "30.7726031"
    },
    {
        "title": "Лес",
        "lat": "50.2452786",
        "lng": "30.5636912"
    },
    {
        "title": "Парк Победы",
        "lat": "50.5068933",
        "lng": "30.788302"
    },
    {
        "title": "Урочище Москалів  Яр",
        "lat": "50.294504",
        "lng": "30.2946471"
    },
    {
        "title": "Урочище Батьківщина",
        "lat": "50.2915377",
        "lng": "30.2983083"
    },
    {
        "title": "Лесопарк",
        "lat": "50.5319816",
        "lng": "30.2603205"
    },
    {
        "title": "Урочище Гнилуша",
        "lat": "50.2919749",
        "lng": "30.2911066"
    },
    {
        "title": "Бывший городской сад",
        "lat": "50.5206199",
        "lng": "30.785247"
    },
    {
        "title": "Парк Победы",
        "lat": "50.5178606",
        "lng": "30.2354206"
    },
    {
        "title": "Парк З. Алиевой",
        "lat": "50.524475",
        "lng": "30.2384304"
    },
    {
        "title": "Хвойный лес",
        "lat": "50.4002808",
        "lng": "30.8290812"
    },
    {
        "title": "Хвойный лес",
        "lat": "50.3966048",
        "lng": "30.8288705"
    },
    {
        "title": "Парк",
        "lat": "50.5261111",
        "lng": "30.2379638"
    },
    {
        "title": "Питомник",
        "lat": "50.4534465",
        "lng": "30.1846635"
    },
    {
        "title": "Парк",
        "lat": "50.6010713",
        "lng": "30.7051563"
    },
    {
        "title": "Оздоровительный лагерь  Дружный ",
        "lat": "50.5150246",
        "lng": "30.2100718"
    },
    {
        "title": "Парк санатория-профилактория  Дружный ",
        "lat": "50.5144502",
        "lng": "30.2074429"
    },
    {
        "title": "Двор окруженный домами.",
        "lat": "50.383694",
        "lng": "30.8483916"
    },
    {
        "title": "Березовая роща",
        "lat": "50.3810447",
        "lng": "30.847646"
    },
    {
        "title": "Заказник “Хутор Чубинского",
        "lat": "50.3823427",
        "lng": "30.8495878"
    },
    {
        "title": "Ліс",
        "lat": "50.3944942",
        "lng": "30.1733021"
    },
    {
        "title": "Памятник погибшим воинам ВОВ",
        "lat": "50.5362617",
        "lng": "30.2150403"
    },
    {
        "title": "Роща",
        "lat": "50.3221683",
        "lng": "30.8212219"
    },
    {
        "title": "Парк Славы",
        "lat": "50.5480265",
        "lng": "30.2173174"
    },
    {
        "title": "Лісосмуга",
        "lat": "50.2973578",
        "lng": "30.2181405"
    },
    {
        "title": "Парк",
        "lat": "50.5546739",
        "lng": "30.2166186"
    },
    {
        "title": "Бучанский городской парк",
        "lat": "50.5663388",
        "lng": "30.224078"
    },
    {
        "title": "Детская площадка",
        "lat": "50.5553625",
        "lng": "30.2117787"
    },
    {
        "title": "Парк ветеранам войны",
        "lat": "50.3911913",
        "lng": "30.875659"
    },
    {
        "title": "Парк Чорнобильцям",
        "lat": "50.557864",
        "lng": "30.2068716"
    },
    {
        "title": "Сквер",
        "lat": "50.5593481",
        "lng": "30.8218351"
    },
    {
        "title": "Лісосмуга",
        "lat": "50.2945444",
        "lng": "30.2057032"
    },
    {
        "title": "Кожуховский лес",
        "lat": "50.2588734",
        "lng": "30.2424752"
    },
    {
        "title": "Пакр Славы",
        "lat": "50.2878578",
        "lng": "30.8328708"
    },
    {
        "title": "Парк",
        "lat": "50.4116793",
        "lng": "30.1172617"
    },
    {
        "title": "Лес",
        "lat": "50.2725138",
        "lng": "30.1841426"
    },
    {
        "title": "Дитячий табір  Енергія ",
        "lat": "50.5409334",
        "lng": "30.1331377"
    },
    {
        "title": "Плакат с планом леса",
        "lat": "50.6732046",
        "lng": "30.3444582"
    },
    {
        "title": "Парк",
        "lat": "50.2232572",
        "lng": "30.2345611"
    },
    {
        "title": "Парк",
        "lat": "50.2231155",
        "lng": "30.2258429"
    },
    {
        "title": "Книшовий меморіально-парковий комплекс",
        "lat": "50.3626081",
        "lng": "30.9335276"
    },
    {
        "title": "Сквер",
        "lat": "50.1782036",
        "lng": "30.317282"
    },
    {
        "title": "Парк Киевская Русь",
        "lat": "50.1448476",
        "lng": "30.471767"
    },
    {
        "title": "Лесопосадка",
        "lat": "50.5869508",
        "lng": "30.1444003"
    },
    {
        "title": "Ліс",
        "lat": "50.3230116",
        "lng": "30.0785385"
    },
    {
        "title": "Парк",
        "lat": "50.5917615",
        "lng": "30.902068"
    },
    {
        "title": "Церковно-етнографічний комплекс  Українське село ",
        "lat": "50.4458462",
        "lng": "30.0478917"
    },
    {
        "title": "Остатки парка усадьбы Сакен-Остенов Воронцовых",
        "lat": "50.5770913",
        "lng": "30.110371"
    },
    {
        "title": "Ліс",
        "lat": "50.3188971",
        "lng": "30.0724875"
    },
    {
        "title": "Ліс",
        "lat": "50.3164951",
        "lng": "30.0688718"
    },
    {
        "title": "Парк на пл.Победы",
        "lat": "50.6989041",
        "lng": "30.7393572"
    },
    {
        "title": "Ліс",
        "lat": "50.3151874",
        "lng": "30.0628529"
    },
    {
        "title": "Лес",
        "lat": "50.7245369",
        "lng": "30.6482559"
    },
    {
        "title": "Ліс",
        "lat": "50.4283553",
        "lng": "30.022959"
    },
    {
        "title": "Парк",
        "lat": "50.576101",
        "lng": "30.0767255"
    },
    {
        "title": "Ліс",
        "lat": "50.4226548",
        "lng": "30.0174282"
    },
    {
        "title": "Park",
        "lat": "50.1109035",
        "lng": "30.6247571"
    },
    {
        "title": "Ліс",
        "lat": "50.4537562",
        "lng": "30.0012346"
    },
    {
        "title": "Ліс",
        "lat": "50.4088142",
        "lng": "29.9990551"
    },
    {
        "title": "Дачний кооператив",
        "lat": "50.310444",
        "lng": "30.021987"
    },
    {
        "title": "Парк Тарасовщины",
        "lat": "50.7114199",
        "lng": "30.2134108"
    },
    {
        "title": "Урочище Федоровка",
        "lat": "50.7102484",
        "lng": "30.8335758"
    },
    {
        "title": "Парк «Юність»",
        "lat": "50.7297324",
        "lng": "30.2406406"
    },
    {
        "title": "Бойків яр",
        "lat": "50.1960538",
        "lng": "30.9301775"
    },
    {
        "title": "Парк",
        "lat": "50.1016075",
        "lng": "30.2762442"
    },
    {
        "title": "Копыловский парк",
        "lat": "50.4082028",
        "lng": "29.8876081"
    },
    {
        "title": "Центральный парк",
        "lat": "50.6449602",
        "lng": "29.938522"
    },
    {
        "title": "Парк",
        "lat": "50.4585559",
        "lng": "29.8065841"
    },
    {
        "title": "Глотов Яр",
        "lat": "50.2343596",
        "lng": "29.8677063"
    },
    {
        "title": "Парк",
        "lat": "50.4555913",
        "lng": "29.800136"
    },
    {
        "title": "Урочище  Зеленицьке ",
        "lat": "50.5485217",
        "lng": "29.7904587"
    },
    {
        "title": "Ліс",
        "lat": "50.6026468",
        "lng": "29.8133217"
    },
    {
        "title": "Старый парк",
        "lat": "50.0596235",
        "lng": "30.0282901"
    },
    {
        "title": "Урочище Відьманка",
        "lat": "50.2823424",
        "lng": "29.7954585"
    },
    {
        "title": "Урочище Цівірінькі",
        "lat": "50.3275671",
        "lng": "29.7707394"
    },
    {
        "title": "Парк",
        "lat": "50.006534",
        "lng": "30.125201"
    },
    {
        "title": "Парк",
        "lat": "50.0053876",
        "lng": "30.1202523"
    },
    {
        "title": "Парк",
        "lat": "50.0034896",
        "lng": "30.1241282"
    },
    {
        "title": "Парк",
        "lat": "50.0050877",
        "lng": "30.1198339"
    },
    {
        "title": "Парк",
        "lat": "50.0045895",
        "lng": "30.1208156"
    },
    {
        "title": "Ліс",
        "lat": "50.4201972",
        "lng": "29.7414665"
    },
    {
        "title": "Посадка",
        "lat": "50.4382242",
        "lng": "29.7406125"
    },
    {
        "title": "Парк",
        "lat": "50.0043205",
        "lng": "30.1137614"
    },
    {
        "title": "Лесополоса",
        "lat": "49.9688615",
        "lng": "30.8154594"
    },
    {
        "title": "Лесополоса",
        "lat": "49.9635197",
        "lng": "30.7980144"
    },
    {
        "title": "Парк",
        "lat": "50.426121",
        "lng": "29.7305703"
    },
    {
        "title": "Ліс",
        "lat": "50.3897599",
        "lng": "29.7289996"
    },
    {
        "title": "Лесополоса",
        "lat": "49.9510884",
        "lng": "30.7963836"
    },
    {
        "title": "парк  Молодежный ",
        "lat": "50.0854476",
        "lng": "29.9239307"
    },
    {
        "title": "Лес",
        "lat": "50.6502531",
        "lng": "29.7796406"
    },
    {
        "title": "Парк",
        "lat": "49.9536165",
        "lng": "30.1797894"
    },
    {
        "title": "Лесочек",
        "lat": "50.6935857",
        "lng": "29.8136047"
    },
    {
        "title": "Парк ім. Юрія Гагаріна",
        "lat": "50.0760706",
        "lng": "29.9139475"
    },
    {
        "title": "Ліс",
        "lat": "50.6568203",
        "lng": "29.7799014"
    },
    {
        "title": "Ліс",
        "lat": "50.6574121",
        "lng": "29.7753631"
    },
    {
        "title": "Ліс",
        "lat": "50.660187",
        "lng": "29.7756099"
    },
    {
        "title": "Ліс",
        "lat": "50.6585411",
        "lng": "29.7696661"
    },
    {
        "title": "Ліс",
        "lat": "50.6614793",
        "lng": "29.7715436"
    },
    {
        "title": "Сосновые посадки",
        "lat": "49.9616082",
        "lng": "30.906837"
    },
    {
        "title": "Ліс",
        "lat": "50.646725",
        "lng": "29.7578322"
    },
    {
        "title": "Ліс",
        "lat": "50.3804368",
        "lng": "29.679958"
    },
    {
        "title": "Ліс",
        "lat": "50.3941009",
        "lng": "29.6677272"
    },
    {
        "title": "Сосны",
        "lat": "49.9968949",
        "lng": "29.9899706"
    },
    {
        "title": "Парк",
        "lat": "49.9997932",
        "lng": "29.9837989"
    },
    {
        "title": "Парк",
        "lat": "49.9809037",
        "lng": "30.0049924"
    },
    {
        "title": "Парк",
        "lat": "49.8900207",
        "lng": "30.788927"
    },
    {
        "title": "Лісосмуга",
        "lat": "50.3932083",
        "lng": "29.6282665"
    },
    {
        "title": "Ліс",
        "lat": "50.3449263",
        "lng": "29.6272193"
    },
    {
        "title": "Ліс",
        "lat": "50.3412424",
        "lng": "29.6187757"
    },
    {
        "title": "Ліс",
        "lat": "50.353028",
        "lng": "29.6156333"
    },
    {
        "title": "Ліс",
        "lat": "50.3509983",
        "lng": "29.6148126"
    },
    {
        "title": "Ліс",
        "lat": "50.3491369",
        "lng": "29.612553"
    },
    {
        "title": "Парк",
        "lat": "49.9892132",
        "lng": "29.9047415"
    },
    {
        "title": "Ліс",
        "lat": "50.3621215",
        "lng": "29.6006451"
    },
    {
        "title": "Сквер  Detersi ",
        "lat": "49.8648774",
        "lng": "30.8253514"
    },
    {
        "title": "Ліс",
        "lat": "50.2967986",
        "lng": "29.5918743"
    },
    {
        "title": "Кагарлыкский парк",
        "lat": "49.8574258",
        "lng": "30.8266148"
    },
    {
        "title": "Лісосмуга",
        "lat": "50.3723874",
        "lng": "29.5399939"
    },
    {
        "title": "Ліс",
        "lat": "50.2659361",
        "lng": "29.5689441"
    },
    {
        "title": "Ліс",
        "lat": "50.2652341",
        "lng": "29.5665757"
    },
    {
        "title": "Ліс",
        "lat": "50.2552991",
        "lng": "29.550673"
    },
    {
        "title": "Ліс",
        "lat": "50.1654222",
        "lng": "29.5980155"
    },
    {
        "title": "закинутий хутір  Остроків ",
        "lat": "49.9275493",
        "lng": "29.8764181"
    },
    {
        "title": "Ліс",
        "lat": "50.233103",
        "lng": "29.5486746"
    },
    {
        "title": "Сазонів Яр",
        "lat": "49.9248141",
        "lng": "29.8737574"
    },
    {
        "title": "Школьный парк",
        "lat": "50.6972357",
        "lng": "29.5878446"
    },
    {
        "title": "Ліс",
        "lat": "50.1907409",
        "lng": "29.5637368"
    },
    {
        "title": "Водокачка",
        "lat": "50.7067388",
        "lng": "29.5845401"
    },
    {
        "title": "Ліс",
        "lat": "50.1659925",
        "lng": "29.5736074"
    },
    {
        "title": "балка",
        "lat": "49.9321834",
        "lng": "29.8391783"
    },
    {
        "title": "Ліс",
        "lat": "50.1811886",
        "lng": "29.5602929"
    },
    {
        "title": "лесополоса",
        "lat": "49.9203382",
        "lng": "29.8473322"
    },
    {
        "title": "Проектний ландшафтний заказник «Малополовецьке»",
        "lat": "49.9558029",
        "lng": "29.7857594"
    },
    {
        "title": "молоді дубки",
        "lat": "49.9193434",
        "lng": "29.847933"
    },
    {
        "title": "молоді дубки",
        "lat": "49.9172918",
        "lng": "29.8477613"
    },
    {
        "title": "Лес",
        "lat": "49.903043",
        "lng": "29.8687684"
    },
    {
        "title": "балка, яр",
        "lat": "49.9165284",
        "lng": "29.8332935"
    },
    {
        "title": "дубки",
        "lat": "49.9181104",
        "lng": "29.8278272"
    },
    {
        "title": "лісосмуга",
        "lat": "49.9349804",
        "lng": "29.7973037"
    },
    {
        "title": "яр",
        "lat": "49.9266583",
        "lng": "29.8095935"
    },
    {
        "title": "Вовчий Яр",
        "lat": "49.8968874",
        "lng": "29.8621702"
    },
    {
        "title": "ліс",
        "lat": "49.9329501",
        "lng": "29.7935271"
    },
    {
        "title": "клумба",
        "lat": "49.9166113",
        "lng": "29.8126513"
    },
    {
        "title": "клумба",
        "lat": "49.916183",
        "lng": "29.8129999"
    },
    {
        "title": "Центральний парк",
        "lat": "49.915278",
        "lng": "29.8118412"
    },
    {
        "title": "балка  Раковина ",
        "lat": "49.9163522",
        "lng": "29.8093736"
    },
    {
        "title": "земельні паї ( Садок )",
        "lat": "49.9050485",
        "lng": "29.8297799"
    },
    {
        "title": "сирачиха",
        "lat": "49.8903628",
        "lng": "29.8511195"
    },
    {
        "title": "територія школи",
        "lat": "49.9132675",
        "lng": "29.8079896"
    },
    {
        "title": "Роговенків Яр",
        "lat": "49.8830907",
        "lng": "29.8369574"
    },
    {
        "title": "балка",
        "lat": "49.9140378",
        "lng": "29.7802233"
    },
    {
        "title": "Сухий Яр",
        "lat": "49.8745039",
        "lng": "29.8388672"
    },
    {
        "title": "Маєток Суслова І.М., ландшафтний парк  Буки ",
        "lat": "49.8397468",
        "lng": "29.6600818"
    },
    {
        "title": "Мост с водой",
        "lat": "49.8388542",
        "lng": "29.6590035"
    }
]