[
    {
        "title": "Торгово-офисный центр  Олимпийский ",
        "lat": "50.4324652",
        "lng": "30.5150816"
    },
    {
        "title": "",
        "lat": "50.4213147",
        "lng": "30.5222753"
    },
    {
        "title": "Бизнес-центр «Палладиум Сити»",
        "lat": "50.4141343",
        "lng": "30.5215216"
    },
    {
        "title": "МФК «Гулливер»",
        "lat": "50.438741",
        "lng": "30.5229508"
    },
    {
        "title": "Пасаж",
        "lat": "50.4401077",
        "lng": "30.5172246"
    },
    {
        "title": "Торговый центр  Интервал-плаза ",
        "lat": "50.4131002",
        "lng": "30.5261489"
    },
    {
        "title": "ТРЦ «Ocean Plaza»",
        "lat": "50.4119994",
        "lng": "30.5225582"
    },
    {
        "title": "Подземный торгово-развлекательный комплекс «Метроград»",
        "lat": "50.4411471",
        "lng": "30.519577"
    },
    {
        "title": "ТЦ «Бессарабский квартал»",
        "lat": "50.4408226",
        "lng": "30.5223289"
    },
    {
        "title": "Мандарин-плаза",
        "lat": "50.4412608",
        "lng": "30.5211166"
    },
    {
        "title": "Арена Сити",
        "lat": "50.4417451",
        "lng": "30.5210843"
    },
    {
        "title": "Подземный торговый центр  Навигатор-Дружбы Народов ",
        "lat": "50.4175235",
        "lng": "30.5436256"
    },
    {
        "title": "Торговый центр «Полесье», выход на Северные платформы",
        "lat": "50.4402931",
        "lng": "30.4910704"
    },
    {
        "title": "Пoдземный торговый центр",
        "lat": "50.4473819",
        "lng": "30.5219561"
    },
    {
        "title": "Торговый центр  Европорт ",
        "lat": "50.4398165",
        "lng": "30.4832008"
    },
    {
        "title": "Торгово-развлекательный центр  Глобус  (вторая и третья линии)",
        "lat": "50.4493084",
        "lng": "30.5254403"
    },
    {
        "title": "Универмаг «Украина»",
        "lat": "50.4461401",
        "lng": "30.4918671"
    },
    {
        "title": "Печерский торговый центр",
        "lat": "50.4390034",
        "lng": "30.5478072"
    },
    {
        "title": "Торгово-развлекательный центр  Глобус  (1-я линия)",
        "lat": "50.4507925",
        "lng": "30.5229405"
    },
    {
        "title": "Подземный торговый центр  Навигатор ",
        "lat": "50.4405493",
        "lng": "30.5502105"
    },
    {
        "title": "ТЦ «Victorio»",
        "lat": "50.4555958",
        "lng": "30.5068719"
    },
    {
        "title": "Дом торговли",
        "lat": "50.4559987",
        "lng": "30.506155"
    },
    {
        "title": "Торговый центр",
        "lat": "50.4230528",
        "lng": "30.5667141"
    },
    {
        "title": "Подземный переход / Торговый центр",
        "lat": "50.4254085",
        "lng": "30.4597261"
    },
    {
        "title": "Универсальный общественно-торговый центр",
        "lat": "50.4497575",
        "lng": "30.4718068"
    },
    {
        "title": "",
        "lat": "50.4625344",
        "lng": "30.5033254"
    },
    {
        "title": "ТЦ  Самсон ",
        "lat": "50.465075",
        "lng": "30.515665"
    },
    {
        "title": "Строительная площадка ТРЦ «Лукьяновка»",
        "lat": "50.4601012",
        "lng": "30.4812911"
    },
    {
        "title": "ТЦ «Квадрат-Лукьяновка»",
        "lat": "50.4621612",
        "lng": "30.4815284"
    },
    {
        "title": "",
        "lat": "50.468224",
        "lng": "30.5217064"
    },
    {
        "title": "",
        "lat": "50.4627532",
        "lng": "30.4807135"
    },
    {
        "title": "Строительная площадка ТРЦ Happy Mall",
        "lat": "50.3920429",
        "lng": "30.4665448"
    },
    {
        "title": "ТЦ  Все для дома ",
        "lat": "50.4718689",
        "lng": "30.5069947"
    },
    {
        "title": "Строительство МФК  Подол ",
        "lat": "50.4739722",
        "lng": "30.5058149"
    },
    {
        "title": "Торговый центр «Аркадия»",
        "lat": "50.4451456",
        "lng": "30.444275"
    },
    {
        "title": "ТРЦ «Мармелад»",
        "lat": "50.4465159",
        "lng": "30.4436667"
    },
    {
        "title": "Торгово-офисный центр «Серебрянный бриз»",
        "lat": "50.4287644",
        "lng": "30.593496"
    },
    {
        "title": "Стройплощадка гипермаркета  Там Там ",
        "lat": "50.4211482",
        "lng": "30.5939197"
    },
    {
        "title": "ТЦ «Променада центр»",
        "lat": "50.4713094",
        "lng": "30.4774753"
    },
    {
        "title": "ТРЦ  Большевик ",
        "lat": "50.4502067",
        "lng": "30.441986"
    },
    {
        "title": "Торговый центр «Точка»",
        "lat": "50.4555914",
        "lng": "30.4457009"
    },
    {
        "title": "Подземный торговый центр  Навигатор-Шулявка ",
        "lat": "50.4564931",
        "lng": "30.4465873"
    },
    {
        "title": "Торговый центр «Шулявский»",
        "lat": "50.4564197",
        "lng": "30.4460911"
    },
    {
        "title": "Супермаркет Novus",
        "lat": "50.4532091",
        "lng": "30.5939224"
    },
    {
        "title": "Общественно-торговый центр",
        "lat": "50.4494074",
        "lng": "30.5968567"
    },
    {
        "title": "Офисно-торговый центр «Левобережный»",
        "lat": "50.4514296",
        "lng": "30.5978384"
    },
    {
        "title": "Общественно-торговый центр",
        "lat": "50.4568175",
        "lng": "30.5939868"
    },
    {
        "title": "Общественно-торговый центр",
        "lat": "50.4565665",
        "lng": "30.5946251"
    },
    {
        "title": "Офисно-торговый центр (строится)",
        "lat": "50.485495",
        "lng": "30.5166011"
    },
    {
        "title": "Торговый центр",
        "lat": "50.4516388",
        "lng": "30.598918"
    },
    {
        "title": "ТРЦ «Комод»",
        "lat": "50.4535524",
        "lng": "30.598513"
    },
    {
        "title": "Строительная площадка ТРЦ Blockbuster Mall",
        "lat": "50.4865674",
        "lng": "30.5220526"
    },
    {
        "title": "Торговый центр  Plazma ",
        "lat": "50.4878627",
        "lng": "30.5076653"
    },
    {
        "title": "ТЦ «Декор-сервис»",
        "lat": "50.4879344",
        "lng": "30.4930836"
    },
    {
        "title": "Центр мебели и интерьера  Аракс ",
        "lat": "50.38158",
        "lng": "30.4407011"
    },
    {
        "title": "ТЦ  Городок ",
        "lat": "50.4899122",
        "lng": "30.4956027"
    },
    {
        "title": "Главный офис интернет магазина Telegraph",
        "lat": "50.4764814",
        "lng": "30.4478788"
    },
    {
        "title": "Общественно-торговый центр",
        "lat": "50.4153452",
        "lng": "30.6171195"
    },
    {
        "title": "Торговый центр  Альта-центр ",
        "lat": "50.4900564",
        "lng": "30.4871008"
    },
    {
        "title": "Торгово-офисный комплекс",
        "lat": "50.4056196",
        "lng": "30.6145554"
    },
    {
        "title": "Строительная площадка ТРЦ Respublika",
        "lat": "50.3737115",
        "lng": "30.4462888"
    },
    {
        "title": "Торговый центр «Магелан»",
        "lat": "50.3679054",
        "lng": "30.4581919"
    },
    {
        "title": "Общественно-торговый центр",
        "lat": "50.3660285",
        "lng": "30.4623131"
    },
    {
        "title": "Общественно-торговый центр, филиал поликлиники № 1 Голосеевского района",
        "lat": "50.3641362",
        "lng": "30.4649108"
    },
    {
        "title": "Торговый центр",
        "lat": "50.4578739",
        "lng": "30.6119882"
    },
    {
        "title": "Гипермаркет Novus",
        "lat": "50.3936664",
        "lng": "30.6115391"
    },
    {
        "title": "ТЦ  Аркадия ",
        "lat": "50.3993271",
        "lng": "30.6166971"
    },
    {
        "title": "Торговый центр",
        "lat": "50.4581058",
        "lng": "30.6131953"
    },
    {
        "title": "ТЦ  Лабиринт ",
        "lat": "50.4575201",
        "lng": "30.6136983"
    },
    {
        "title": "Строительство ТЦ  Аппетит ",
        "lat": "50.3961658",
        "lng": "30.6149428"
    },
    {
        "title": "Общественно-торговый центр",
        "lat": "50.3661654",
        "lng": "30.4538561"
    },
    {
        "title": "Общественно-торговый центр",
        "lat": "50.4636306",
        "lng": "30.6096664"
    },
    {
        "title": "Общественно-торговый центр ",
        "lat": "50.4608769",
        "lng": "30.6142113"
    },
    {
        "title": "Общественно-торговый центр",
        "lat": "50.4085871",
        "lng": "30.4040421"
    },
    {
        "title": "ТРЦ SkyMall",
        "lat": "50.4930499",
        "lng": "30.5593514"
    },
    {
        "title": "Частично построенный торгово офисный комплекс",
        "lat": "50.412825",
        "lng": "30.6284951"
    },
    {
        "title": "Гипермаркет «Ашан-Радужный»",
        "lat": "50.4938804",
        "lng": "30.5614623"
    },
    {
        "title": "Общественно-торговый центр ",
        "lat": "50.483405",
        "lng": "30.588794"
    },
    {
        "title": "Строительный супермаркет  Практикер ",
        "lat": "50.4058126",
        "lng": "30.3996927"
    },
    {
        "title": "Торговый центр  Мега-Сити ",
        "lat": "50.4315476",
        "lng": "30.6343111"
    },
    {
        "title": "Торгово офисный комплекс",
        "lat": "50.410244",
        "lng": "30.6322357"
    },
    {
        "title": "Общественно-торговый центр",
        "lat": "50.503405",
        "lng": "30.5070993"
    },
    {
        "title": "Торгово офисный комплекс",
        "lat": "50.4106687",
        "lng": "30.6339024"
    },
    {
        "title": "ТЦ «Куренёвский»",
        "lat": "50.4955995",
        "lng": "30.459525"
    },
    {
        "title": "Торговый центр «Днепровский»",
        "lat": "50.4932548",
        "lng": "30.5764214"
    },
    {
        "title": "ТРЦ «Квадрат»",
        "lat": "50.4848443",
        "lng": "30.5951412"
    },
    {
        "title": "Гипермаркет «Караван»",
        "lat": "50.4177802",
        "lng": "30.3925144"
    },
    {
        "title": "ТЦ «inSilver»",
        "lat": "50.4009716",
        "lng": "30.6309972"
    },
    {
        "title": "Общественно-торговый центр",
        "lat": "50.4881818",
        "lng": "30.5905375"
    },
    {
        "title": "",
        "lat": "50.4212597",
        "lng": "30.3904392"
    },
    {
        "title": "Общественно-торговый центр",
        "lat": "50.4919156",
        "lng": "30.5836978"
    },
    {
        "title": "ТОЦ «Форум Сателлит»",
        "lat": "50.4358582",
        "lng": "30.3902596"
    },
    {
        "title": "Торговый центр",
        "lat": "50.4618531",
        "lng": "30.626986"
    },
    {
        "title": "Центр развития международной торговли «Rainbow»",
        "lat": "50.4322101",
        "lng": "30.6402468"
    },
    {
        "title": "Общественно-торговый центр ",
        "lat": "50.4627991",
        "lng": "30.6275345"
    },
    {
        "title": "Общественно-торговый центр  «Северный»",
        "lat": "50.4673308",
        "lng": "30.6240128"
    },
    {
        "title": "Малярный цех ООО  Торговый Дом  КАМАЗ , ООО  Киевский Республиканский Автоцентр ",
        "lat": "50.4438111",
        "lng": "30.639237"
    },
    {
        "title": "ТЦ  Центрум ",
        "lat": "50.4018291",
        "lng": "30.6366406"
    },
    {
        "title": "ООО  Торговый Дом  КАМАЗ , ООО  Киевский Республиканский Автоцентр ",
        "lat": "50.4434515",
        "lng": "30.6397171"
    },
    {
        "title": "Супермаркет Novus",
        "lat": "50.4587489",
        "lng": "30.632243"
    },
    {
        "title": "ТРЦ «DreamTown-1»",
        "lat": "50.5074249",
        "lng": "30.4984277"
    },
    {
        "title": "ТЦ  Глобал UA ",
        "lat": "50.4979225",
        "lng": "30.5768206"
    },
    {
        "title": "Торговый центр (строится)",
        "lat": "50.3965776",
        "lng": "30.6362571"
    },
    {
        "title": "Торгово-офисный центр  Параллель ",
        "lat": "50.3972111",
        "lng": "30.6370097"
    },
    {
        "title": "Общественно-торговый центр ",
        "lat": "50.4702463",
        "lng": "30.6256127"
    },
    {
        "title": "ТЦ Квадрат",
        "lat": "50.4313086",
        "lng": "30.3836024"
    },
    {
        "title": "Торговый центр  Пирамида ",
        "lat": "50.3976994",
        "lng": "30.6383089"
    },
    {
        "title": "Торговый центр",
        "lat": "50.3946215",
        "lng": "30.636548"
    },
    {
        "title": "Торговый центр",
        "lat": "50.3951361",
        "lng": "30.6370496"
    },
    {
        "title": "Торговый центр",
        "lat": "50.395691",
        "lng": "30.6375217"
    },
    {
        "title": "Торговый центр",
        "lat": "50.3967126",
        "lng": "30.6386483"
    },
    {
        "title": "",
        "lat": "50.3938196",
        "lng": "30.6373675"
    },
    {
        "title": "ТЦ  Континент ",
        "lat": "50.4355422",
        "lng": "30.3807431"
    },
    {
        "title": "Торговый центр",
        "lat": "50.3972313",
        "lng": "30.6414444"
    },
    {
        "title": "Торговый центр",
        "lat": "50.4088612",
        "lng": "30.6468142"
    },
    {
        "title": "МФК  Домосфера ",
        "lat": "50.3433818",
        "lng": "30.5521082"
    },
    {
        "title": "Торговый центр  Святошин ",
        "lat": "50.4565853",
        "lng": "30.3882131"
    },
    {
        "title": "Торговый комплекс",
        "lat": "50.4212056",
        "lng": "30.6506806"
    },
    {
        "title": "Общественно-торговый центр",
        "lat": "50.50095",
        "lng": "30.585342"
    },
    {
        "title": "ТРЦ  Атмосфера  (строится)",
        "lat": "50.3411271",
        "lng": "30.5495821"
    },
    {
        "title": "ТРЦ Gagarin",
        "lat": "50.4052319",
        "lng": "30.6486956"
    },
    {
        "title": "Гипермаркет «METRO-Позняки»",
        "lat": "50.3903319",
        "lng": "30.6411466"
    },
    {
        "title": "Общественно-торговый центр",
        "lat": "50.4980496",
        "lng": "30.5959019"
    },
    {
        "title": "Центр торговли «Дарынок»",
        "lat": "50.4609609",
        "lng": "30.6427453"
    },
    {
        "title": "",
        "lat": "50.4146257",
        "lng": "30.6527755"
    },
    {
        "title": "Офисно-торговый центр",
        "lat": "50.4911733",
        "lng": "30.6106996"
    },
    {
        "title": "Торговый комплекс",
        "lat": "50.4261112",
        "lng": "30.373971"
    },
    {
        "title": "Торговый комплекс",
        "lat": "50.4267586",
        "lng": "30.3736339"
    },
    {
        "title": "Общественно-торговый центр",
        "lat": "50.4753172",
        "lng": "30.3964958"
    },
    {
        "title": "Общественно-торговый центр",
        "lat": "50.5018866",
        "lng": "30.5912749"
    },
    {
        "title": "Общественно-торговый центр ",
        "lat": "50.5012947",
        "lng": "30.5933136"
    },
    {
        "title": "Торговый центр «Маяк»",
        "lat": "50.4627356",
        "lng": "30.6444106"
    },
    {
        "title": "Торговый центр «Зелёная линия»",
        "lat": "50.4654301",
        "lng": "30.6434185"
    },
    {
        "title": "Торговый центр",
        "lat": "50.3989713",
        "lng": "30.6513351"
    },
    {
        "title": "ТРЦ «DreamTown-2»",
        "lat": "50.5168397",
        "lng": "30.4986906"
    },
    {
        "title": "Общественно-торговый центр",
        "lat": "50.5017646",
        "lng": "30.4341499"
    },
    {
        "title": "Торговый центр",
        "lat": "50.3926969",
        "lng": "30.3804132"
    },
    {
        "title": "Торговый комплекс ",
        "lat": "50.421859",
        "lng": "30.3706827"
    },
    {
        "title": "Общественно-торговый центр",
        "lat": "50.4981469",
        "lng": "30.6035771"
    },
    {
        "title": "Торговый центр  Южный ",
        "lat": "50.407344",
        "lng": "30.6558036"
    },
    {
        "title": "Торговый центр",
        "lat": "50.391075",
        "lng": "30.3807846"
    },
    {
        "title": "Торговый центр  Кактус ",
        "lat": "50.3940256",
        "lng": "30.3783814"
    },
    {
        "title": "Общественно-торговый центр",
        "lat": "50.5066157",
        "lng": "30.5863997"
    },
    {
        "title": "Общественно-торговый центр",
        "lat": "50.50279",
        "lng": "30.5961808"
    },
    {
        "title": "Торговый центр",
        "lat": "50.4025445",
        "lng": "30.6554134"
    },
    {
        "title": "Торговый комплекс",
        "lat": "50.5058365",
        "lng": "30.4399845"
    },
    {
        "title": "Торговый центр  Квартал ",
        "lat": "50.394377",
        "lng": "30.3775285"
    },
    {
        "title": "Общественно-торговый центр",
        "lat": "50.4154093",
        "lng": "30.6601193"
    },
    {
        "title": "",
        "lat": "50.4253614",
        "lng": "30.3671764"
    },
    {
        "title": "Торговый центр",
        "lat": "50.504565",
        "lng": "30.5966314"
    },
    {
        "title": "Общественный центр",
        "lat": "50.5193453",
        "lng": "30.4917876"
    },
    {
        "title": "Общественно-торговый центр",
        "lat": "50.5082599",
        "lng": "30.5896657"
    },
    {
        "title": "Общественно-торговый центр  Юнона ",
        "lat": "50.5070539",
        "lng": "30.5946707"
    },
    {
        "title": "Общественно-торговый центр",
        "lat": "50.5009568",
        "lng": "30.6097796"
    },
    {
        "title": "Торговый центр",
        "lat": "50.5222215",
        "lng": "30.504468"
    },
    {
        "title": "Магазин, аптека, спортбар",
        "lat": "50.5084433",
        "lng": "30.435896"
    },
    {
        "title": "Торговий центр",
        "lat": "50.4123869",
        "lng": "30.6648857"
    },
    {
        "title": "Строительная площадка торгово-офисного центра",
        "lat": "50.4667805",
        "lng": "30.6548354"
    },
    {
        "title": "Торговый центр «Сириус»",
        "lat": "50.5098514",
        "lng": "30.5955545"
    },
    {
        "title": "ТЦ «Полярный»",
        "lat": "50.5194269",
        "lng": "30.4652925"
    },
    {
        "title": "Общественно-бытовой комплекс",
        "lat": "50.4850478",
        "lng": "30.6387005"
    },
    {
        "title": "Общественно-торговый центр",
        "lat": "50.5085823",
        "lng": "30.5995658"
    },
    {
        "title": "Торгово-офисное здание",
        "lat": "50.4069089",
        "lng": "30.6670044"
    },
    {
        "title": "Супермаркет «Сільпо»",
        "lat": "50.5184825",
        "lng": "30.4583448"
    },
    {
        "title": "Строительство ТРЦ Retroville",
        "lat": "50.5035023",
        "lng": "30.4165146"
    },
    {
        "title": "Торговый центр VMB",
        "lat": "50.456815",
        "lng": "30.3654082"
    },
    {
        "title": "Строительная площадка строительного гипермаркета  Леруа Мерлен ",
        "lat": "50.4692271",
        "lng": "30.656442"
    },
    {
        "title": "Строительный торговый центр  БудМайдан ",
        "lat": "50.4398848",
        "lng": "30.3579471"
    },
    {
        "title": "Центр мебели и интерьера  4room ",
        "lat": "50.4382344",
        "lng": "30.357456"
    },
    {
        "title": "Мебельный ТЦ «Диамант»",
        "lat": "50.4408465",
        "lng": "30.357509"
    },
    {
        "title": "Общественно-торговый центр «Чернигов»",
        "lat": "50.508054",
        "lng": "30.4199195"
    },
    {
        "title": "Торговый комплекс  Дарина ",
        "lat": "50.5081388",
        "lng": "30.6091118"
    },
    {
        "title": "ТЦ Ober Haus",
        "lat": "50.5043488",
        "lng": "30.6169143"
    },
    {
        "title": "ООО  Караван-Центр Украина ",
        "lat": "50.4447438",
        "lng": "30.356387"
    },
    {
        "title": "ERIDON TECH",
        "lat": "50.4398199",
        "lng": "30.355124"
    },
    {
        "title": "Общественно-торговый центр",
        "lat": "50.5095103",
        "lng": "30.6079396"
    },
    {
        "title": "Общественно-торговый центр",
        "lat": "50.512456",
        "lng": "30.6014058"
    },
    {
        "title": "Торговый центр «Виноградарь»",
        "lat": "50.5120971",
        "lng": "30.4238414"
    },
    {
        "title": "Общественно-торговый центр",
        "lat": "50.5143543",
        "lng": "30.6000231"
    },
    {
        "title": "Торговый комплекс",
        "lat": "50.5226306",
        "lng": "30.451973"
    },
    {
        "title": "Торговый центр",
        "lat": "50.464795",
        "lng": "30.3620508"
    },
    {
        "title": "Общественно-торговый центр",
        "lat": "50.5075964",
        "lng": "30.617786"
    },
    {
        "title": "ТРЦ «РайON»",
        "lat": "50.5165689",
        "lng": "30.6019239"
    },
    {
        "title": "Общественно-торговый центр",
        "lat": "50.5138103",
        "lng": "30.6094176"
    },
    {
        "title": "Общественно-торговый центр",
        "lat": "50.5105235",
        "lng": "30.616976"
    },
    {
        "title": "Супермаркет Novus",
        "lat": "50.4617945",
        "lng": "30.3555437"
    },
    {
        "title": "Общественно-торговый центр",
        "lat": "50.5136687",
        "lng": "30.6134489"
    },
    {
        "title": "Витас Лтд",
        "lat": "50.4665045",
        "lng": "30.3572711"
    },
    {
        "title": "Общественно-торговый центр",
        "lat": "50.510578",
        "lng": "30.6206157"
    },
    {
        "title": "Гипермаркет одежды  Баул ",
        "lat": "50.4655039",
        "lng": "30.3541101"
    },
    {
        "title": "Общественно-торговый центр «Радунь»",
        "lat": "50.5222633",
        "lng": "30.5992359"
    },
    {
        "title": "Гипермаркет «Metro-Троещина»",
        "lat": "50.5114837",
        "lng": "30.6241804"
    },
    {
        "title": "",
        "lat": "50.5190512",
        "lng": "30.6084332"
    },
    {
        "title": "",
        "lat": "50.519215",
        "lng": "30.6088784"
    },
    {
        "title": "Супермаркет «Сельпо»",
        "lat": "50.5131067",
        "lng": "30.6231558"
    },
    {
        "title": "Белицкий торговый центр",
        "lat": "50.4603454",
        "lng": "30.3482938"
    },
    {
        "title": "Общественно-торговый центр",
        "lat": "50.5197893",
        "lng": "30.6090042"
    },
    {
        "title": "Общественно-торговый центр",
        "lat": "50.5169194",
        "lng": "30.6163215"
    },
    {
        "title": "ТЦ «Маяк»",
        "lat": "50.5172827",
        "lng": "30.6156081"
    },
    {
        "title": "Торговый центр",
        "lat": "50.525175",
        "lng": "30.6000982"
    },
    {
        "title": "Общественно-торговый центр ",
        "lat": "50.5242797",
        "lng": "30.6103831"
    },
    {
        "title": "Общественно-торговый центр",
        "lat": "50.5178984",
        "lng": "30.6260848"
    },
    {
        "title": "Торговый комплекс",
        "lat": "50.5306637",
        "lng": "30.5943543"
    },
    {
        "title": "Общественно-торговый центр ",
        "lat": "50.5240512",
        "lng": "30.620597"
    },
    {
        "title": "Торговый центр для садоводов",
        "lat": "50.4995203",
        "lng": "30.3639927"
    },
    {
        "title": "ТЦ «Милославский»",
        "lat": "50.5336456",
        "lng": "30.6006638"
    },
    {
        "title": "Общественно-торговый центр",
        "lat": "50.5267727",
        "lng": "30.6193994"
    },
    {
        "title": "Торгово-офисный центр",
        "lat": "50.4386838",
        "lng": "30.325495"
    },
    {
        "title": "Торговый центр",
        "lat": "50.5337367",
        "lng": "30.6032984"
    },
    {
        "title": "ТЦ «Квадрат»",
        "lat": "50.5323033",
        "lng": "30.6082069"
    },
    {
        "title": "Общественно-торговый центр",
        "lat": "50.5260258",
        "lng": "30.6275976"
    },
    {
        "title": "Emporium «Siaivo»",
        "lat": "50.5840183",
        "lng": "30.4927495"
    },
    {
        "title": "Торговый центр  Квартал ",
        "lat": "50.3359083",
        "lng": "30.281716"
    },
    {
        "title": "Гипермаркет ФОЗЗИ (FOZZY)",
        "lat": "50.3897382",
        "lng": "30.7983255"
    },
    {
        "title": "Торговый центр  Форум ",
        "lat": "50.5105815",
        "lng": "30.7876074"
    },
    {
        "title": "Торговый центр  Перекресток ",
        "lat": "50.5115861",
        "lng": "30.7888171"
    },
    {
        "title": "Торговый центр: Фора, Аптекарь, Приватбанк, Банк Киев",
        "lat": "50.5194813",
        "lng": "30.2461711"
    },
    {
        "title": "ТЦ  LEX ",
        "lat": "50.5225376",
        "lng": "30.2478245"
    },
    {
        "title": "Магазин модной одежды  КАТОН ",
        "lat": "50.5123519",
        "lng": "30.7939857"
    },
    {
        "title": "Автомагазин запчастей на автомобили CHERY, Lanos, Aveo",
        "lat": "50.5236505",
        "lng": "30.7925092"
    },
    {
        "title": "ТЦ «Форум»",
        "lat": "50.519903",
        "lng": "30.7958471"
    },
    {
        "title": "Крамниці",
        "lat": "50.2317861",
        "lng": "30.6496426"
    },
    {
        "title": "Супер-маркет  Форум ",
        "lat": "50.5065012",
        "lng": "30.8282455"
    },
    {
        "title": "Торговый центр  Буча Пассаж ",
        "lat": "50.5487696",
        "lng": "30.2168815"
    },
    {
        "title": "Торговый центр  Зоряный ",
        "lat": "50.5530772",
        "lng": "30.2137837"
    },
    {
        "title": "Торговый центр  Модуль ",
        "lat": "50.5492733",
        "lng": "30.1971647"
    },
    {
        "title": "Торговий центр Aeromall",
        "lat": "50.3639616",
        "lng": "30.9212431"
    },
    {
        "title": "Торговый центр «Пассаж»,",
        "lat": "50.1773808",
        "lng": "30.3152114"
    },
    {
        "title": "Торговий центр",
        "lat": "50.592085",
        "lng": "30.9005271"
    },
    {
        "title": "Рыночно-торговый комплекс",
        "lat": "50.1271592",
        "lng": "30.6501576"
    },
    {
        "title": "ТЦ  Магнит ",
        "lat": "50.1255789",
        "lng": "30.652813"
    },
    {
        "title": "Торговий центр",
        "lat": "50.1095532",
        "lng": "30.3692056"
    },
    {
        "title": "Торгівельний центр",
        "lat": "50.0794409",
        "lng": "29.9147683"
    }
]