[
{"address":"Київ, вул.Грушевського №4", "title":"ТВО №218 ВД №1", "lat":50.450795, "lng":30.528595999999993, "bounds":
[{"address":"Київ хрещатик  5б", "lat":50.450921, "lng":30.527135},
{"address":"Київ музейний  2", "lat":50.45007200000001, "lng":30.529448},
{"address":"Київ музейний  6", "lat":50.44967, "lng":30.529603},
{"address":"Київ музейний  8б.", "lat":50.449369, "lng":30.530004},
{"address":"Київ грушевського  4а", "lat":50.450833, "lng":30.528226},
{"address":"Київ грушевського  4б", "lat":50.450976, "lng":30.527731},
{"address":"Київ грушевського  86", "lat":50.5069716, "lng":30.7797809},
{"address":"Київ грушевського  14", "lat":50.447398, "lng":30.535363},
{"address":"Київ грушевського  16а.", "lat":50.447239, "lng":30.535609},
{"address":"Київ набережне шосе  14", "lat":50.472279, "lng":30.520588},
{"address":"Київ інститутська  9", "lat":50.4472889, "lng":30.5307414},
{"address":"Київ інститутська  11а", "lat":50.44686, "lng":30.532479},
{"address":"Київ інститутська  13а", "lat":50.447252, "lng":30.532936},
{"address":"Київ інститутська  13", "lat":50.447252, "lng":30.532936},
{"address":"Київ інститутська  15", "lat":50.4466446, "lng":30.5323762},
{"address":"Київ інститутська  17", "lat":50.445831, "lng":30.535254},
{"address":"Київ інститутська  19а", "lat":50.445704, "lng":30.535563},
{"address":"Київ інститутська  19б", "lat":50.445847, "lng":30.535913},
{"address":"Київ інститутська  19в", "lat":50.445529, "lng":30.535886},
{"address":"Київ інститутська  22.", "lat":50.445163, "lng":30.535373},
{"address":"Київ шовковична  3", "lat":50.446262, "lng":30.535743},
{"address":"Київ шовковична  5", "lat":50.44604, "lng":30.535419},
{"address":"Київ шовковична  7а", "lat":50.445023, "lng":30.534468},
{"address":"Київ станіславського  3.", "lat":50.446437, "lng":30.5263},
{"address":"Київ городецького  10", "lat":50.446843, "lng":30.526624},
{"address":"Київ городецького  12", "lat":50.4472706, "lng":30.5266387},
{"address":"Київ заньковецької  3", "lat":50.446784, "lng":30.52579},
{"address":"Київ ольгінська  2.", "lat":50.446419, "lng":30.527813}
]},
{"address":"Київ, вул. Городецького 1/3", "title":"ТВО №218 ВД №2", "lat":50.448787, "lng":30.525260000000003, "bounds":
[{"address":"Київ городецького  4", "lat":50.448634, "lng":30.524282},
{"address":"Київ городецького  6", "lat":50.448275, "lng":30.525198},
{"address":"Київ городецького  9", "lat":50.447783, "lng":30.526418},
{"address":"Київ городецького  11а", "lat":50.447455, "lng":30.526811},
{"address":"Київ городецького  11б", "lat":50.44768999999999, "lng":30.527026},
{"address":"Київ городецького  15", "lat":50.447028, "lng":30.527132},
{"address":"Київ городецького  17", "lat":50.446858, "lng":30.52747099999999},
{"address":"Київ хрещатик  13", "lat":50.45133120000001, "lng":30.52567669999999},
{"address":"Київ хрещатик  17", "lat":50.447753, "lng":30.522928}
]},
{"address":"Київ, вул. Ольгинська, 2/4", "title":"ТВО №218 ВД №3", "lat":50.446846, "lng":30.529068999999936, "bounds":
[{"address":"Київ заньковецької  4", "lat":50.447261, "lng":30.52558999999999},
{"address":"Київ заньковецької  5", "lat":50.4471593, "lng":30.5257578},
{"address":"Київ заньковецької  6", "lat":50.446856, "lng":30.525126},
{"address":"Київ заньковецької  7", "lat":50.445965, "lng":30.524927},
{"address":"Київ заньковецької  8", "lat":50.44671, "lng":30.524415},
{"address":"Київ заньковецької  10.", "lat":50.44706410000001, "lng":30.5256549},
{"address":"Київ хрещатик  15", "lat":50.4473127, "lng":30.5257516},
{"address":"Київ хрещатик  21", "lat":50.4458566, "lng":30.5222458}
]},
{"address":"Київ, вул. Круглоуніверситетська 9", "title":"ТВО №218 ВД №4", "lat":50.444335, "lng":30.52347199999997, "bounds":
[{"address":"Київ хрещатик  23", "lat":50.445107, "lng":30.522072},
{"address":"Київ хрещатик  25", "lat":50.444477, "lng":30.522792},
{"address":"Київ хрещатик  27.", "lat":50.44381370000001, "lng":30.5226588},
{"address":"Київ круглоуніверситетська  7.", "lat":50.443936, "lng":30.523734},
{"address":"Київ лютеранська  3", "lat":50.44634199999999, "lng":30.523005},
{"address":"Київ лютеранська  70", "lat":50.4426147, "lng":30.5291075},
{"address":"Київ лютеранська  8", "lat":50.445186, "lng":30.522967},
{"address":"Київ лютеранська  9", "lat":50.445676, "lng":30.524649},
{"address":"Київ лютеранська  11а", "lat":50.445795, "lng":30.525311},
{"address":"Київ лютеранська  11б", "lat":50.44552299999999, "lng":30.52501},
{"address":"Київ лютеранська  13", "lat":50.445335, "lng":30.525332},
{"address":"Київ лютеранська  15", "lat":50.44515, "lng":30.526011},
{"address":"Київ лютеранська  17", "lat":50.444868, "lng":30.525974},
{"address":"Київ лютеранська  19", "lat":50.444585, "lng":30.526354},
{"address":"Київ лютеранська  21", "lat":50.44425099999999, "lng":30.5272508},
{"address":"Київ лютеранська  212", "lat":50.444282, "lng":30.526344},
{"address":"Київ лютеранська  267", "lat":50.444282, "lng":30.526344},
{"address":"Київ лютеранська  289", "lat":50.444282, "lng":30.526344},
{"address":"Київ лютеранська  28а.", "lat":50.44327200000001, "lng":30.527568}
]},
{"address":"Київ, провулок Козловського 3", "title":"ТВО №218 ВД №5", "lat":50.441966, "lng":30.527215999999953, "bounds":
[{"address":"Київ інститутська  14", "lat":50.446616, "lng":30.531588},
{"address":"Київ інститутська  16", "lat":50.446293, "lng":30.532909},
{"address":"Київ інститутська  18", "lat":50.445848, "lng":30.533908},
{"address":"Київ інститутська  20.", "lat":50.4460319, "lng":30.5341389},
{"address":"Київ банкова  10", "lat":50.445033, "lng":30.52857899999999},
{"address":"Київ банкова  3", "lat":50.446032, "lng":30.530391},
{"address":"Київ козловського  4", "lat":50.441879, "lng":30.526697},
{"address":"Київ козловського  5", "lat":50.441572, "lng":30.527802},
{"address":"Київ лютеранська  24", "lat":50.4433978, "lng":30.5277964},
{"address":"Київ лютеранська  25", "lat":50.443523, "lng":30.528196},
{"address":"Київ лютеранська  279", "lat":50.444282, "lng":30.526344},
{"address":"Київ лютеранська  30", "lat":50.442616, "lng":30.528332},
{"address":"Київ лютеранська  32", "lat":50.442426, "lng":30.528847},
{"address":"Київ лютеранська  33.", "lat":50.442781, "lng":30.529356},
{"address":"Київ шовковична  305", "lat":50.443466, "lng":30.531461},
{"address":"Київ шовковична  30а", "lat":50.442704, "lng":30.530168},
{"address":"Київ шовковична  30б", "lat":50.443028, "lng":30.52971},
{"address":"Київ шовковична  324", "lat":50.443466, "lng":30.531461},
{"address":"Київ шовковична  348", "lat":50.443466, "lng":30.531461},
{"address":"Київ шовковична  36", "lat":50.441403, "lng":30.52833799999999},
{"address":"Київ круглоуніверситетська  119", "lat":50.4428257, "lng":30.5274612},
{"address":"Київ круглоуніверситетська  13", "lat":50.44299299999999, "lng":30.526385},
{"address":"Київ круглоуніверситетська  14", "lat":50.4432789, "lng":30.5257601},
{"address":"Київ круглоуніверситетська  15", "lat":50.442865, "lng":30.526983},
{"address":"Київ круглоуніверситетська  17", "lat":50.442919, "lng":30.527352},
{"address":"Київ круглоуніверситетська  18", "lat":50.442192, "lng":30.526401},
{"address":"Київ круглоуніверситетська  22.", "lat":50.442555, "lng":30.527562}
]},
{"address":"Київ, вул. Липська № 15/17", "title":"ТВО №218 ВД №6", "lat":50.443265, "lng":30.534768999999983, "bounds":
[{"address":"Київ інститутська  24.", "lat":50.444196, "lng":30.53685299999999},
{"address":"Київ шовковична  9", "lat":50.444771, "lng":30.53373},
{"address":"Київ шовковична  10", "lat":50.444876, "lng":30.533119},
{"address":"Київ шовковична  11", "lat":50.444512, "lng":30.533297},
{"address":"Київ шовковична  13", "lat":50.4443274, "lng":30.53262999999999},
{"address":"Київ шовковична  16а", "lat":50.444782, "lng":30.531482},
{"address":"Київ шовковична  16б", "lat":50.444272, "lng":30.531419},
{"address":"Київ шовковична  18", "lat":50.44399, "lng":30.531925},
{"address":"Київ шовковична  18а", "lat":50.444765, "lng":30.530839},
{"address":"Київ шовковична  18б", "lat":50.444912, "lng":30.531159},
{"address":"Київ шовковична  19", "lat":50.442946, "lng":30.531206},
{"address":"Київ шовковична  20", "lat":50.4438, "lng":30.531663},
{"address":"Київ шовковична  21", "lat":50.442687, "lng":30.531062},
{"address":"Київ шовковична  22", "lat":50.44359, "lng":30.531378},
{"address":"Київ шовковична  23", "lat":50.442386, "lng":30.530386},
{"address":"Київ шовковична  24", "lat":50.443342, "lng":30.531066},
{"address":"Київ шовковична  27.", "lat":50.442184, "lng":30.53020099999999},
{"address":"Київ липська  9а", "lat":50.444062, "lng":30.535582},
{"address":"Київ липська  9б", "lat":50.444009, "lng":30.535953},
{"address":"Київ липська  12", "lat":50.4443703, "lng":30.535108},
{"address":"Київ липська  15(а", "lat":50.44259, "lng":30.535304},
{"address":"Київ липська  19", "lat":50.442614, "lng":30.533648},
{"address":"Київ пилипа орлика  15", "lat":50.44103399999999, "lng":30.536966},
{"address":"Київ пилипа орлика  4", "lat":50.442908, "lng":30.532095},
{"address":"Київ пилипа орлика  6", "lat":50.442691, "lng":30.53255},
{"address":"Київ пилипа орлика  10.", "lat":50.442272, "lng":30.533432},
{"address":"Київ липський  3.", "lat":50.444259, "lng":30.533787}
]},
{"address":"Київ, вул.Богмольця 4", "title":"ТВО №218 ВД №7", "lat":50.440318, "lng":30.53115600000001, "bounds":
[{"address":"Київ академіка богомольця  2", "lat":50.440745, "lng":30.529044},
{"address":"Київ академіка богомольця  3", "lat":50.441228, "lng":30.529366},
{"address":"Київ академіка богомольця  5", "lat":50.441076, "lng":30.529744},
{"address":"Київ академіка богомольця  6", "lat":50.440619, "lng":30.532336},
{"address":"Київ академіка богомольця  74", "lat":50.4413531, "lng":30.5342817},
{"address":"Київ академіка богомольця  8", "lat":50.440666, "lng":30.533352},
{"address":"Київ академіка богомольця  8а.", "lat":50.439867, "lng":30.533157},
{"address":"Київ пилипа орлика  9", "lat":50.442125, "lng":30.53451399999999},
{"address":"Київ пилипа орлика  22", "lat":50.440619, "lng":30.536291},
{"address":"Київ пилипа орлика  24.", "lat":50.4411808, "lng":30.53592209999999},
{"address":"Київ шовковична  25", "lat":50.44185, "lng":30.530539},
{"address":"Київ шовковична  29.", "lat":50.441726, "lng":30.529642}
]},
{"address":"Київ, вул. Дарвіна, 2", "title":"ТВО №218 ВД №8", "lat":50.44227, "lng":30.52465200000006, "bounds":
[{"address":"Київ круглоуніверситетська  2", "lat":50.44306, "lng":30.524376},
{"address":"Київ круглоуніверситетська  4", "lat":50.443199, "lng":30.523705},
{"address":"Київ круглоуніверситетська  4б", "lat":50.443162, "lng":30.524181},
{"address":"Київ круглоуніверситетська  6", "lat":50.443396, "lng":30.52376},
{"address":"Київ (б). ", "lat":50.4501, "lng":30.5234},
{"address":"Київ крутий узвіз  5", "lat":50.442771, "lng":30.525111},
{"address":"Київ крутий узвіз  6.", "lat":50.4425871, "lng":30.5248858},
{"address":"Київ хрещатик  29.", "lat":50.443202, "lng":30.521362}
]},
{"address":"Київ, вул. Лютеранська 10", "title":"ТВО №218 ВД №9", "lat":50.4450162, "lng":30.523581499999977, "bounds":
[{"address":"Київ лютеранська  4", "lat":50.445839, "lng":30.52303199999999},
{"address":"Київ лютеранська  6", "lat":50.445395, "lng":30.523304},
{"address":"Київ лютеранська  10а", "lat":50.4450162, "lng":30.5235815},
{"address":"Київ лютеранська  12", "lat":50.444759, "lng":30.524302},
{"address":"Київ лютеранська  16.", "lat":50.444782, "lng":30.525304},
{"address":"Київ шовковична  38", "lat":50.440879, "lng":30.527582},
{"address":"Київ шовковична  48", "lat":50.439953, "lng":30.525841},
{"address":"Київ кропивницького  3", "lat":50.441032, "lng":30.52503},
{"address":"Київ кропивницького  4", "lat":50.441717, "lng":30.524093},
{"address":"Київ кропивницького  6", "lat":50.441458, "lng":30.524291},
{"address":"Київ кропивницького  8", "lat":50.44106000000001, "lng":30.524494},
{"address":"Київ кропивницького  10", "lat":50.441015, "lng":30.524286},
{"address":"Київ кропивницького  12", "lat":50.440817, "lng":30.52468},
{"address":"Київ кропивницького  14", "lat":50.440593, "lng":30.524824},
{"address":"Київ кропивницького  16", "lat":50.440369, "lng":30.5251},
{"address":"Київ кропивницького  18.", "lat":50.440172, "lng":30.525444}
]},
{"address":"Київ, вул. Липська, 11", "title":"ТВО №218 ВД №10", "lat":50.443744, "lng":30.535243000000037, "bounds":
[]},
{"address":"Київ, вул. Пилипа Орлика 13", "title":"ТВО №218 ВД №11", "lat":50.441244, "lng":30.536744, "bounds":
[{"address":"Київ чекістів  1а", "lat":50.4430744, "lng":30.53228069999999},
{"address":"Київ чекістів  2а", "lat":50.4430744, "lng":30.53228069999999},
{"address":"Київ чекістів  3", "lat":50.443208, "lng":30.532444},
{"address":"Київ чекістів  4", "lat":50.442908, "lng":30.532095},
{"address":"Київ чекістів  5", "lat":50.4429392, "lng":30.5324933},
{"address":"Київ чекістів  8", "lat":50.442033, "lng":30.53252},
{"address":"Київ чекістів  10.", "lat":50.442272, "lng":30.533432},
{"address":"Київ виноградний  11", "lat":50.443036, "lng":30.536153},
{"address":"Київ виноградний  4", "lat":50.442127, "lng":30.536607},
{"address":"Київ виноградний  6.", "lat":50.443046, "lng":30.537194},
{"address":"Київ івана мар'яненка  7", "lat":50.43917, "lng":30.534647},
{"address":"Київ івана мар'яненка  9", "lat":50.43936, "lng":30.535977},
{"address":"Київ івана мар'яненка  112", "lat":50.43926270000001, "lng":30.5355071},
{"address":"Київ івана мар'яненка  14.", "lat":50.438635, "lng":30.533111}
]},
{"address":"Київ, вул. Січневого повстання 13", "title":"ТВО №218 ВД №12", "lat":46.45353129999999, "lng":30.70894999999996, "bounds":
[{"address":"Київ грушевського  9", "lat":50.444617, "lng":30.542467},
{"address":"Київ грушевського  28", "lat":50.44558730000001, "lng":30.5388995},
{"address":"Київ грушевського  34", "lat":50.443751, "lng":30.54242099999999},
{"address":"Київ грушевського  34а.", "lat":50.44331400000001, "lng":30.540415},
{"address":"Київ інститутська  25", "lat":50.444685, "lng":30.537181},
{"address":"Київ інститутська  25а", "lat":50.444519, "lng":30.537367},
{"address":"Київ інститутська  27.", "lat":50.4439681, "lng":30.5379931},
{"address":"Київ кріпосний  4.", "lat":50.4445123, "lng":30.5383567}
]},
{"address":"Київ, Кловський узвіз, 8", "title":"ТВО №218 ВД №13", "lat":50.44073299999999, "lng":30.537923200000023, "bounds":
[{"address":"Київ кловський узвіз  3", "lat":50.442725, "lng":30.539382},
{"address":"Київ кловський узвіз  4", "lat":50.442267, "lng":30.538062},
{"address":"Київ кловський узвіз  4а", "lat":50.44251, "lng":30.537597},
{"address":"Київ кловський узвіз  5", "lat":50.442132, "lng":30.539088},
{"address":"Київ кловський узвіз  6", "lat":50.441706, "lng":30.538193},
{"address":"Київ кловський узвіз  9", "lat":50.4404878, "lng":30.5382333},
{"address":"Київ кловський узвіз  10", "lat":50.440089, "lng":30.537925},
{"address":"Київ кловський узвіз  12", "lat":50.439283, "lng":30.537752},
{"address":"Київ кловський узвіз  12а", "lat":50.438798, "lng":30.537516},
{"address":"Київ кловський узвіз  144.", "lat":50.440349, "lng":30.5382251},
{"address":"Київ мечникова  11.", "lat":50.438548, "lng":30.536822},
{"address":"Київ садова  14.", "lat":50.387438, "lng":30.441401},
{"address":"Київ івана мар'яненка  13", "lat":50.439647, "lng":30.537103}
]},
{"address":"Київ, вул. Січневого повстання, 23", "title":"ТВО №218 ВД №14", "lat":46.45353129999999, "lng":30.70894999999996, "bounds":
[{"address":"Київ інфекційних захворювань ", "lat":50.4501, "lng":30.5234}
]},
{"address":"Київ, вул. Січневого повстання 22", "title":"ТВО №218 ВД №15", "lat":46.45353129999999, "lng":30.70894999999996, "bounds":
[{"address":"Київ січневого повстання  7", "lat":46.460201, "lng":30.717033},
{"address":"Київ січневого повстання  9", "lat":46.45995600000001, "lng":30.717446},
{"address":"Київ січневого повстання  11", "lat":46.45353129999999, "lng":30.70895},
{"address":"Київ січневого повстання  11а", "lat":46.45353129999999, "lng":30.70895},
{"address":"Київ січневого повстання  12", "lat":46.45353129999999, "lng":30.70895},
{"address":"Київ січневого повстання  12а", "lat":46.45353129999999, "lng":30.70895},
{"address":"Київ січневого повстання  12б", "lat":46.45353129999999, "lng":30.70895},
{"address":"Київ січневого повстання  14", "lat":46.45353129999999, "lng":30.70895},
{"address":"Київ січневого повстання  16", "lat":46.45353129999999, "lng":30.70895},
{"address":"Київ січневого повстання  17", "lat":46.459194, "lng":30.716475},
{"address":"Київ січневого повстання  17а", "lat":46.459194, "lng":30.716475},
{"address":"Київ січневого повстання  189", "lat":46.454273, "lng":30.7171721},
{"address":"Київ січневого повстання  21", "lat":46.458864, "lng":30.714051},
{"address":"Київ корп.  15", "lat":50.4347705, "lng":30.5567033},
{"address":"Київ корп.  24", "lat":50.4061695, "lng":30.6584783},
{"address":"Київ корп.  24а", "lat":50.4061695, "lng":30.6584783},
{"address":"Київ корп.  24б", "lat":50.4061695, "lng":30.6584783},
{"address":"Київ корп.  24в", "lat":50.4061695, "lng":30.6584783},
{"address":"Київ корп.  25", "lat":50.450451, "lng":30.420898},
{"address":"Київ корп.  26", "lat":50.450451, "lng":30.420898},
{"address":"Київ корп.  26а", "lat":50.450451, "lng":30.420898},
{"address":"Київ корп.  28", "lat":50.41170930000001, "lng":30.6690777},
{"address":"Київ корп.  29", "lat":50.450451, "lng":30.420898},
{"address":"Київ корп.  30", "lat":50.4802693, "lng":30.29809059999999},
{"address":"Київ корп.  31", "lat":50.450451, "lng":30.420898},
{"address":"Київ корп.  32", "lat":50.452123, "lng":30.462279},
{"address":"Київ корп.  33.", "lat":50.450451, "lng":30.420898},
{"address":"Київ аскольдів  3а", "lat":50.442898, "lng":30.548748}
]},
{"address":"Київ, вул. Московська 3", "title":"ТВО №218 ВД №16", "lat":50.442277, "lng":30.545210999999995, "bounds":
[{"address":"Київ московська  5", "lat":50.441367, "lng":30.545066},
{"address":"Київ московська  8", "lat":50.44036999999999, "lng":30.54434999999999},
{"address":"Київ московська  15", "lat":50.439525, "lng":30.545069},
{"address":"Київ московська  17", "lat":50.4385565, "lng":30.5450236},
{"address":"Київ січневого повстання  1", "lat":46.454459, "lng":30.726211},
{"address":"Київ січневого повстання  3", "lat":46.454437, "lng":30.724568},
{"address":"Київ січневого повстання  4", "lat":46.45353129999999, "lng":30.70895},
{"address":"Київ січневого повстання  10", "lat":46.45353129999999, "lng":30.70895},
{"address":"Київ аістова  3", "lat":50.441266, "lng":30.546907},
{"address":"Київ аістова  5.", "lat":50.4411818, "lng":30.5467192},
{"address":"Київ інженерний  4.", "lat":50.442925, "lng":30.545583}
]},
{"address":"Київ, вул. Андрія Іванова 11", "title":"ТВО №218 ВД №17", "lat":50.439593, "lng":30.545564000000013, "bounds":
[{"address":"Київ аніщенка  4", "lat":50.44088900000001, "lng":30.545772},
{"address":"Київ аніщенка  5", "lat":50.44173, "lng":30.545794},
{"address":"Київ аніщенка  85", "lat":50.4389942, "lng":30.5470197},
{"address":"Київ аніщенка  12", "lat":50.439182, "lng":30.546744},
{"address":"Київ аніщенка  14.", "lat":50.438811, "lng":30.546737},
{"address":"Київ андрія іванова  12", "lat":50.43953399999999, "lng":30.547113},
{"address":"Київ андрія іванова  13", "lat":50.439612, "lng":30.54617},
{"address":"Київ андрія іванова  14", "lat":50.43973219999999, "lng":30.5472969},
{"address":"Київ андрія іванова  17", "lat":50.43986899999999, "lng":30.546949},
{"address":"Київ андрія іванова  19", "lat":50.439874, "lng":30.547371},
{"address":"Київ андрія іванова  217", "lat":50.439846, "lng":30.5477791},
{"address":"Київ андрія іванова  23.", "lat":50.440115, "lng":30.54826},
{"address":"Київ московська  24", "lat":50.43682099999999, "lng":30.544577},
{"address":"Київ московська  27", "lat":50.437594, "lng":30.545519},
{"address":"Київ московська  29", "lat":50.437026, "lng":30.545137},
{"address":"Київ московська  29a", "lat":50.391301, "lng":30.455825},
{"address":"Київ московська  29б", "lat":50.437026, "lng":30.545137},
{"address":"Київ московська  29в.", "lat":50.391301, "lng":30.455825},
{"address":"Київ січневий  15", "lat":50.4410769, "lng":30.54829419999999},
{"address":"Київ січневий  9.", "lat":50.44097, "lng":30.548258}
]},
{"address":"Київ, вул. Суворова 9", "title":"ТВО №218 ВД №18", "lat":50.437272, "lng":30.547022999999967, "bounds":
[{"address":"Київ суворова  3", "lat":50.438296, "lng":30.549721},
{"address":"Київ суворова  5", "lat":50.43842, "lng":30.549132},
{"address":"Київ суворова  7", "lat":50.438304, "lng":30.54848599999999},
{"address":"Київ суворова  11", "lat":50.437621, "lng":30.548044},
{"address":"Київ суворова  13", "lat":50.436329, "lng":30.54729399999999},
{"address":"Київ суворова  142", "lat":50.43803699999999, "lng":30.5471948},
{"address":"Київ суворова  180", "lat":50.43803699999999, "lng":30.5471948},
{"address":"Київ миколи гайана  6", "lat":50.4501, "lng":30.5234},
{"address":"Київ миколи гайана  8.", "lat":50.4501, "lng":30.5234},
{"address":"Київ григорія царика  3", "lat":50.437679, "lng":30.546138},
{"address":"Київ григорія царика  5.", "lat":50.437968, "lng":30.546159}
]},
{"address":"Київ, вул. Рибальська №4", "title":"ТВО №218 ВД №19", "lat":50.434616, "lng":30.543682999999987, "bounds":
[{"address":"Київ рибальська  4", "lat":50.434616, "lng":30.543683}
]},
{"address":"Київ, проспект Голосіївський, 59 а", "title":"ТВО №218 ВД №20", "lat":50.398402, "lng":30.512125999999967, "bounds":
[{"address":"Київ голосування міський геріатичний центр ", "lat":50.4501, "lng":30.5234},
{"address":"Київ лабораторна  6)", "lat":50.426299, "lng":30.524743}
]},
{"address":"Київ, вул. П. Мирного 24", "title":"ТВО №218 ВД №21", "lat":50.43406, "lng":30.539244000000053, "bounds":
[{"address":"Київ московська  36.", "lat":50.434766, "lng":30.544713},
{"address":"Київ панаса мирного  8", "lat":50.43325, "lng":30.542717},
{"address":"Київ панаса мирного  10", "lat":50.433315, "lng":30.542391},
{"address":"Київ панаса мирного  12", "lat":50.433397, "lng":30.541864},
{"address":"Київ панаса мирного  14", "lat":50.433471, "lng":30.541268},
{"address":"Київ панаса мирного  163", "lat":50.433372, "lng":30.540533},
{"address":"Київ гусовського  111", "lat":50.43376230000001, "lng":30.5407208},
{"address":"Київ гусовського  15", "lat":50.43371699999999, "lng":30.540979}
]},
{"address":"Київ, вул. П. Мирного 24", "title":"ТВО №218 ВД №22", "lat":50.43406, "lng":30.539244000000053, "bounds":
[{"address":"Київ панаса мирного  1", "lat":50.432779, "lng":30.544118},
{"address":"Київ панаса мирного  24", "lat":50.43406, "lng":30.539244},
{"address":"Київ панаса мирного  3", "lat":50.432901, "lng":30.543176},
{"address":"Київ панаса мирного  5", "lat":50.432888, "lng":30.542653},
{"address":"Київ панаса мирного  6", "lat":50.433193, "lng":30.543188},
{"address":"Київ панаса мирного  7", "lat":50.433371, "lng":30.539585},
{"address":"Київ панаса мирного  7а", "lat":50.43335099999999, "lng":30.539945},
{"address":"Київ панаса мирного  9а.", "lat":50.432543, "lng":30.538339},
{"address":"Київ панаса мирного  9б", "lat":50.432982, "lng":30.538791},
{"address":"Київ панаса мирного  11", "lat":50.433555, "lng":30.537878},
{"address":"Київ панаса мирного  17", "lat":50.43356, "lng":30.536795},
{"address":"Київ панаса мирного  20", "lat":50.433678, "lng":30.540025},
{"address":"Київ панаса мирного  21а", "lat":50.434225, "lng":30.53452},
{"address":"Київ панаса мирного  22", "lat":50.43391399999999, "lng":30.539521},
{"address":"Київ панаса мирного  27", "lat":50.4339032, "lng":30.5367412},
{"address":"Київ панаса мирного  28а.", "lat":50.434467, "lng":30.537061}
]},
{"address":"Київ, Печерський узвіз 13", "title":"ТВО №218 ВД №23", "lat":50.436326, "lng":30.534425000000056, "bounds":
[{"address":"Київ печерський узвіз  8", "lat":50.435765, "lng":30.533827},
{"address":"Київ печерський узвіз  10", "lat":50.435553, "lng":30.534593},
{"address":"Київ печерський узвіз  11", "lat":50.436751, "lng":30.535095},
{"address":"Київ печерський узвіз  13", "lat":50.436326, "lng":30.534425},
{"address":"Київ печерський узвіз  15", "lat":50.43609, "lng":30.53553399999999},
{"address":"Київ печерський узвіз  17", "lat":50.436527, "lng":30.537564},
{"address":"Київ печерський узвіз  18", "lat":50.43575999999999, "lng":30.539523},
{"address":"Київ печерський узвіз  19", "lat":50.436379, "lng":30.5389},
{"address":"Київ гусовського  4а", "lat":50.435289, "lng":30.540376},
{"address":"Київ кловський узвіз  14а", "lat":50.437932, "lng":30.53750299999999},
{"address":"Київ кловський узвіз  14б", "lat":50.437932, "lng":30.53750299999999}
]},
{"address":"Київ, вул. Лейпцігська 1а", "title":"ТВО №218 ВД №24", "lat":50.4501, "lng":30.523400000000038, "bounds":
[{"address":"Київ кутузова  1", "lat":50.430788, "lng":30.543774},
{"address":"Київ кутузова  2", "lat":50.431663, "lng":30.54374199999999},
{"address":"Київ кутузова  4", "lat":50.431216, "lng":30.543123},
{"address":"Київ кутузова  4а", "lat":50.43074499999999, "lng":30.542367},
{"address":"Київ кутузова  6", "lat":50.43033, "lng":30.541375},
{"address":"Київ кутузова  9.", "lat":50.429268, "lng":30.541556},
{"address":"Київ кутузова  4.", "lat":50.431216, "lng":30.543123},
{"address":"Київ московська  37", "lat":50.434219, "lng":30.54552099999999},
{"address":"Київ московська  39", "lat":50.433462, "lng":30.54580099999999},
{"address":"Київ московська  46.", "lat":50.432467, "lng":30.544527},
{"address":"Київ лейпцігська  27", "lat":50.4501, "lng":30.5234},
{"address":"Київ лейпцігська  3", "lat":50.4501, "lng":30.5234},
{"address":"Київ лейпцігська  5", "lat":50.4501, "lng":30.5234},
{"address":"Київ лейпцігська  6.", "lat":50.4501, "lng":30.5234},
{"address":"Київ цитадельна  4", "lat":50.433209, "lng":30.549019},
{"address":"Київ цитадельна  6.", "lat":50.4325765, "lng":30.5474522},
{"address":"Київ суворова  19", "lat":50.43530000000001, "lng":30.546022},
{"address":"Київ суворова  19а.", "lat":50.435301, "lng":30.5469}
]},
{"address":"Київ, вул. Рибальська 4", "title":"ТВО №218 ВД №25", "lat":50.434616, "lng":30.543682999999987, "bounds":
[{"address":"Київ московська  45.", "lat":50.429986, "lng":30.545379}
]},
{"address":"Київ, вул. Радіальна №5", "title":"ТВО №218 ВД №26", "lat":50.428552, "lng":30.55670800000007, "bounds":
[{"address":"Київ козятинська  4", "lat":50.428562, "lng":30.557508},
{"address":"Київ козятинська  5", "lat":50.428933, "lng":30.557928},
{"address":"Київ козятинська  5а", "lat":50.428933, "lng":30.557928},
{"address":"Київ козятинська  6", "lat":50.428462, "lng":30.557749},
{"address":"Київ козятинська  7", "lat":50.428743, "lng":30.558232},
{"address":"Київ козятинська  8", "lat":50.428425, "lng":30.558437},
{"address":"Київ козятинська  9", "lat":50.429065, "lng":30.558124},
{"address":"Київ козятинська  10", "lat":50.428356, "lng":30.558866},
{"address":"Київ козятинська  110", "lat":50.4298574, "lng":30.5584178},
{"address":"Київ панфіловців  1", "lat":50.429865, "lng":30.549469},
{"address":"Київ панфіловців  27", "lat":50.43012299999999, "lng":30.552187},
{"address":"Київ панфіловців  3", "lat":50.4296487, "lng":30.5497942},
{"address":"Київ панфіловців  4", "lat":50.429279, "lng":30.550175},
{"address":"Київ панфіловців  4а", "lat":50.429279, "lng":30.550175},
{"address":"Київ панфіловців  5", "lat":50.4296448, "lng":30.5501198},
{"address":"Київ панфіловців  6", "lat":50.4296422, "lng":30.5502823},
{"address":"Київ панфіловців  6а", "lat":50.42947299999999, "lng":30.551401},
{"address":"Київ панфіловців  7", "lat":50.429818, "lng":30.550452},
{"address":"Київ панфіловців  8", "lat":50.42933499999999, "lng":30.55172},
{"address":"Київ панфіловців  9", "lat":50.429771, "lng":30.55069499999999},
{"address":"Київ панфіловців  10", "lat":50.429446, "lng":30.55236499999999},
{"address":"Київ панфіловців  11", "lat":50.429879, "lng":30.550944},
{"address":"Київ панфіловців  12", "lat":50.429461, "lng":30.552729},
{"address":"Київ панфіловців  12а", "lat":50.429461, "lng":30.552729},
{"address":"Київ панфіловців  13", "lat":50.43014300000001, "lng":30.55109},
{"address":"Київ панфіловців  14", "lat":50.429209, "lng":30.552535},
{"address":"Київ панфіловців  15", "lat":50.430205, "lng":30.551597},
{"address":"Київ панфіловців  16", "lat":50.429021, "lng":30.551877},
{"address":"Київ панфіловців  16а", "lat":50.428856, "lng":30.551836},
{"address":"Київ панфіловців  17", "lat":50.429857, "lng":30.551299},
{"address":"Київ панфіловців  18", "lat":50.42903099999999, "lng":30.552397},
{"address":"Київ панфіловців  18а", "lat":50.42903099999999, "lng":30.552397},
{"address":"Київ панфіловців  19", "lat":50.429827, "lng":30.551588},
{"address":"Київ панфіловців  21", "lat":50.429826, "lng":30.551812},
{"address":"Київ панфіловців  21а", "lat":50.429826, "lng":30.551812},
{"address":"Київ панфіловців  22", "lat":50.429117, "lng":30.552895},
{"address":"Київ панфіловців  23", "lat":50.429825, "lng":30.552121},
{"address":"Київ панфіловців  24", "lat":50.429434, "lng":30.553226},
{"address":"Київ панфіловців  25", "lat":50.430063, "lng":30.551843},
{"address":"Київ панфіловців  26", "lat":50.429447, "lng":30.553873},
{"address":"Київ панфіловців  26а", "lat":50.429181, "lng":30.553849},
{"address":"Київ панфіловців  27", "lat":50.43012299999999, "lng":30.552187},
{"address":"Київ панфіловців  28", "lat":50.429444, "lng":30.55413799999999},
{"address":"Київ панфіловців  29", "lat":50.430239, "lng":30.552585},
{"address":"Київ панфіловців  29а", "lat":50.430239, "lng":30.552585},
{"address":"Київ панфіловців  30", "lat":50.428974, "lng":30.554465},
{"address":"Київ панфіловців  30а", "lat":50.42941, "lng":30.554579},
{"address":"Київ панфіловців  31", "lat":50.429846, "lng":30.552702},
{"address":"Київ панфіловців  32", "lat":50.4296155, "lng":30.5526943},
{"address":"Київ панфіловців  33", "lat":50.4296155, "lng":30.5526943},
{"address":"Київ панфіловців  34", "lat":50.429453, "lng":30.556091},
{"address":"Київ панфіловців  35", "lat":50.4296484, "lng":30.5564383},
{"address":"Київ панфіловців  36", "lat":50.4295, "lng":30.556493},
{"address":"Київ панфіловців  36а", "lat":50.429207, "lng":30.556556},
{"address":"Київ панфіловців  37", "lat":50.4296484, "lng":30.5564383},
{"address":"Київ панфіловців  38", "lat":50.4296081, "lng":30.5533347},
{"address":"Київ панфіловців  39", "lat":50.429974, "lng":30.553343},
{"address":"Київ панфіловців  39а", "lat":50.430241, "lng":30.553117},
{"address":"Київ панфіловців  40", "lat":50.429638, "lng":30.557609},
{"address":"Київ панфіловців  41", "lat":50.429736, "lng":30.554604},
{"address":"Київ панфіловців  43", "lat":50.4295917, "lng":30.5552567},
{"address":"Київ панфіловців  44а", "lat":50.4295917, "lng":30.5555831},
{"address":"Київ панфіловців  45", "lat":50.429765, "lng":30.555871},
{"address":"Київ панфіловців  47", "lat":50.4296138, "lng":30.5559045},
{"address":"Київ радіальна  4", "lat":50.42922, "lng":30.556011},
{"address":"Київ редутна  3", "lat":50.42906199999999, "lng":30.55134499999999},
{"address":"Київ редутна  4", "lat":50.4289796, "lng":30.5511321},
{"address":"Київ редутна  5", "lat":50.428915, "lng":30.551447},
{"address":"Київ редутна  6", "lat":50.42910200000001, "lng":30.550821},
{"address":"Київ редутна  7", "lat":50.4283405, "lng":30.5511389},
{"address":"Київ редутна  8", "lat":50.428799, "lng":30.550995},
{"address":"Київ редутна  9", "lat":50.42780260000001, "lng":30.5514336},
{"address":"Київ редутна  10", "lat":50.42849700000001, "lng":30.550908},
{"address":"Київ редутна  11", "lat":50.42768, "lng":30.552192},
{"address":"Київ редутна  12", "lat":50.42823500000001, "lng":30.550961},
{"address":"Київ редутна  13", "lat":50.427564, "lng":30.552448},
{"address":"Київ редутна  14", "lat":50.42797600000001, "lng":30.551091},
{"address":"Київ редутна  15", "lat":50.427572, "lng":30.552683},
{"address":"Київ редутна  16", "lat":50.427855, "lng":30.551217},
{"address":"Київ редутна  17", "lat":50.427516, "lng":30.552836},
{"address":"Київ редутна  18", "lat":50.427346, "lng":30.551801},
{"address":"Київ редутна  19", "lat":50.427529, "lng":30.553436},
{"address":"Київ редутна  19а", "lat":50.427529, "lng":30.553436},
{"address":"Київ редутна  20", "lat":50.427299, "lng":30.5522},
{"address":"Київ редутна  21", "lat":50.42778999999999, "lng":30.553546},
{"address":"Київ редутна  22", "lat":50.427262, "lng":30.552836},
{"address":"Київ редутна  23", "lat":50.427986, "lng":30.553389},
{"address":"Київ редутна  23а", "lat":50.42788900000001, "lng":30.552724},
{"address":"Київ редутна  23б", "lat":50.42804899999999, "lng":30.552764},
{"address":"Київ редутна  24", "lat":50.427219, "lng":30.553246},
{"address":"Київ редутна  25", "lat":50.42822, "lng":30.553281},
{"address":"Київ редутна  25а", "lat":50.42842899999999, "lng":30.553216},
{"address":"Київ редутна  26", "lat":50.427245, "lng":30.553727},
{"address":"Київ редутна  28", "lat":50.427121, "lng":30.55424},
{"address":"Київ редутна  29", "lat":50.428887, "lng":30.55323199999999},
{"address":"Київ редутна  30", "lat":50.42752410000001, "lng":30.553796},
{"address":"Київ редутна  31", "lat":50.4275783, "lng":30.55381239999999},
{"address":"Київ редутна  32", "lat":50.427649, "lng":30.554002},
{"address":"Київ редутна  33", "lat":50.428942, "lng":30.553894},
{"address":"Київ редутна  39", "lat":50.428145, "lng":30.556366},
{"address":"Київ редутна  40", "lat":50.42859199999999, "lng":30.554516},
{"address":"Київ редутна  41", "lat":50.427633, "lng":30.556323},
{"address":"Київ редутна  41а", "lat":50.42777299999999, "lng":30.556442},
{"address":"Київ редутна  42", "lat":50.42851, "lng":30.554862},
{"address":"Київ редутна  43", "lat":50.427609, "lng":30.556791},
{"address":"Київ редутна  44", "lat":50.428226, "lng":30.55511599999999},
{"address":"Київ редутна  45", "lat":50.427359, "lng":30.557013},
{"address":"Київ редутна  45а", "lat":50.427359, "lng":30.557013},
{"address":"Київ редутна  46", "lat":50.427954, "lng":30.555265},
{"address":"Київ редутна  49", "lat":50.427111, "lng":30.557649},
{"address":"Київ редутна  49а", "lat":50.42725799999999, "lng":30.557859},
{"address":"Київ редутна  49б", "lat":50.427111, "lng":30.557649},
{"address":"Київ редутна  50", "lat":50.427421, "lng":30.555825},
{"address":"Київ редутна  51", "lat":50.427, "lng":30.557929},
{"address":"Київ редутна  51а", "lat":50.427, "lng":30.557929},
{"address":"Київ редутна  52", "lat":50.427232, "lng":30.55624},
{"address":"Київ редутна  53", "lat":50.426964, "lng":30.558176},
{"address":"Київ редутна  53а", "lat":50.427241, "lng":30.558268},
{"address":"Київ редутна  54", "lat":50.42712299999999, "lng":30.556641},
{"address":"Київ редутна  54а", "lat":50.42697099999999, "lng":30.556973},
{"address":"Київ редутна  55", "lat":50.426984, "lng":30.558497},
{"address":"Київ редутна  56", "lat":50.426872, "lng":30.557273},
{"address":"Київ редутна  58", "lat":50.426784, "lng":30.557616},
{"address":"Київ редутна  59", "lat":50.427445, "lng":30.558878},
{"address":"Київ редутна  60", "lat":50.42671, "lng":30.557984},
{"address":"Київ редутна  60а", "lat":50.42671, "lng":30.557984},
{"address":"Київ редутна  61", "lat":50.427477, "lng":30.559181},
{"address":"Київ редутна  62", "lat":50.426702, "lng":30.558098},
{"address":"Київ редутна  63", "lat":50.4268333, "lng":30.5582127},
{"address":"Київ редутна  64", "lat":50.426677, "lng":30.558329},
{"address":"Київ редутна  64а", "lat":50.42648, "lng":30.558389},
{"address":"Київ редутна  66", "lat":50.426709, "lng":30.558919},
{"address":"Київ редутна  66а", "lat":50.426578, "lng":30.55866799999999},
{"address":"Київ редутна  68", "lat":50.426436, "lng":30.558756},
{"address":"Київ редутна  706", "lat":50.428081, "lng":30.555585},
{"address":"Київ січневого повстання  46", "lat":46.4535779, "lng":30.7105116},
{"address":"Київ січневого повстання  48", "lat":46.4535754, "lng":30.7102465},
{"address":"Київ січневого повстання  52", "lat":46.4535754, "lng":30.7102465},
{"address":"Київ 545.. старонаводницька  9", "lat":50.429837, "lng":30.546426},
{"address":"Київ 545.. старонаводницька  17", "lat":50.429495, "lng":30.549634},
{"address":"Київ 545.. старонаводницька  19", "lat":50.429145, "lng":30.549978},
{"address":"Київ 545.. старонаводницька  21", "lat":50.4289429, "lng":30.5496682},
{"address":"Київ 545.. старонаводницька  23", "lat":50.4288585, "lng":30.5497335},
{"address":"Київ 545.. старонаводницька  25", "lat":50.428962, "lng":30.550397},
{"address":"Київ 545.. старонаводницька  27", "lat":50.428859, "lng":30.550516},
{"address":"Київ 545.. старонаводницька  29", "lat":50.428697, "lng":30.550595},
{"address":"Київ 545.. старонаводницька  31", "lat":50.42851539999999, "lng":30.5499982},
{"address":"Київ 545.. старонаводницька  35", "lat":50.42691, "lng":30.554762},
{"address":"Київ 545.. старонаводницька  37", "lat":50.42682199999999, "lng":30.554933},
{"address":"Київ 545.. старонаводницька  39", "lat":50.4265878, "lng":30.5547859},
{"address":"Київ 545.. старонаводницька  41", "lat":50.426742, "lng":30.556036},
{"address":"Київ 545.. старонаводницька  43", "lat":50.426586, "lng":30.556473},
{"address":"Київ 545.. старонаводницька  45", "lat":50.42657, "lng":30.556887},
{"address":"Київ 545.. старонаводницька  47..", "lat":50.426548, "lng":30.557161},
{"address":"Київ набережно печерська дорога  4", "lat":50.420739, "lng":30.569884},
{"address":"Київ набережно печерська дорога  8", "lat":50.420466, "lng":30.57045099999999},
{"address":"Київ набережно печерська дорога  10", "lat":50.415612, "lng":30.578475},
{"address":"Київ набережно печерська дорога  12", "lat":50.414701, "lng":30.577977},
{"address":"Київ козятинський  2", "lat":50.428999, "lng":30.557223},
{"address":"Київ козятинський  4", "lat":50.429227, "lng":30.557907},
{"address":"Київ козятинський  6", "lat":50.429305, "lng":30.558324},
{"address":"Київ козятинський  8", "lat":50.4295987, "lng":30.5582438},
{"address":"Київ козятинський  8а", "lat":50.4295987, "lng":30.5582438},
{"address":"Київ козятинський  10", "lat":50.429702, "lng":30.558551},
{"address":"Київ козятинський  10а", "lat":50.429702, "lng":30.558551},
{"address":"Київ михайла реута  2", "lat":50.4302398, "lng":30.5506041},
{"address":"Київ михайла реута  3", "lat":50.430409, "lng":30.550589},
{"address":"Київ михайла реута  4", "lat":50.430077, "lng":30.550023},
{"address":"Київ михайла реута  5", "lat":50.430466, "lng":30.550851},
{"address":"Київ михайла реута  6", "lat":50.430094, "lng":30.550371},
{"address":"Київ михайла реута  7", "lat":50.430572, "lng":30.550797},
{"address":"Київ михайла реута  8", "lat":50.430072, "lng":30.550742},
{"address":"Київ михайла реута  9", "lat":50.4307516, "lng":30.551005},
{"address":"Київ михайла реута  10", "lat":50.430411, "lng":30.551376},
{"address":"Київ михайла реута  11", "lat":50.430822, "lng":30.5512371},
{"address":"Київ михайла реута  11а", "lat":50.430822, "lng":30.5512371},
{"address":"Київ михайла реута  12", "lat":50.43069, "lng":30.551245},
{"address":"Київ михайла реута  14", "lat":50.430656, "lng":30.551693},
{"address":"Київ михайла реута  15", "lat":50.430982, "lng":30.551871},
{"address":"Київ михайла реута  16", "lat":50.430617, "lng":30.552004},
{"address":"Київ михайла реута  17", "lat":50.431256, "lng":30.552588},
{"address":"Київ михайла реута  18", "lat":50.430612, "lng":30.552453},
{"address":"Київ михайла реута  19", "lat":50.430893, "lng":30.55228},
{"address":"Київ михайла реута  19а", "lat":50.430893, "lng":30.55228},
{"address":"Київ михайла реута  20", "lat":50.430648, "lng":30.552946},
{"address":"Київ михайла реута  25", "lat":50.430916, "lng":30.552604},
{"address":"Київ новонаводницький  3", "lat":50.427816, "lng":30.558778},
{"address":"Київ новонаводницький  5", "lat":50.427723, "lng":30.558415},
{"address":"Київ новонаводницький  5а", "lat":50.427557, "lng":30.558479},
{"address":"Київ новонаводницький  7", "lat":50.427656, "lng":30.558058},
{"address":"Київ новонаводницький  7а", "lat":50.427498, "lng":30.557841},
{"address":"Київ новонаводницький  9", "lat":50.427695, "lng":30.557468},
{"address":"Київ новонаводницький  9а", "lat":50.427558, "lng":30.557686},
{"address":"Київ новонаводницький  11", "lat":50.427971, "lng":30.558226},
{"address":"Київ панфіловців  1", "lat":50.429865, "lng":30.549469},
{"address":"Київ панфіловців  2", "lat":50.4296487, "lng":30.5496316},
{"address":"Київ панфіловців  3", "lat":50.4296487, "lng":30.5497942},
{"address":"Київ панфіловців  4", "lat":50.429279, "lng":30.550175},
{"address":"Київ панфіловців  5", "lat":50.4296448, "lng":30.5501198},
{"address":"Київ панфіловців  6", "lat":50.4296422, "lng":30.5502823},
{"address":"Київ панфіловців  7", "lat":50.429818, "lng":30.550452},
{"address":"Київ панфіловців  7а", "lat":50.430579, "lng":30.555501},
{"address":"Київ панфіловців  8", "lat":50.42933499999999, "lng":30.55172},
{"address":"Київ панфіловців  10", "lat":50.429446, "lng":30.55236499999999},
{"address":"Київ панфіловців  12", "lat":50.429461, "lng":30.552729},
{"address":"Київ панфіловців  14", "lat":50.429209, "lng":30.552535},
{"address":"Київ панфіловців  16", "lat":50.429021, "lng":30.551877},
{"address":"Київ редутний  3", "lat":50.427177, "lng":30.554825},
{"address":"Київ редутний  3а", "lat":50.42706700000001, "lng":30.554531},
{"address":"Київ редутний  4", "lat":50.42721, "lng":30.555573},
{"address":"Київ редутний  6", "lat":50.427484, "lng":30.55493899999999},
{"address":"Київ редутний  7", "lat":50.42777, "lng":30.554206},
{"address":"Київ редутний  82", "lat":50.4285864, "lng":30.55381},
{"address":"Київ редутний  8а", "lat":50.427749, "lng":30.55463},
{"address":"Київ редутний  9", "lat":50.42791889999999, "lng":30.5542929},
{"address":"Київ редутний  10", "lat":50.42810900000001, "lng":30.554467},
{"address":"Київ редутний  10а", "lat":50.428067, "lng":30.55473},
{"address":"Київ редутний  11", "lat":50.427899, "lng":30.553898},
{"address":"Київ редутний  12", "lat":50.4280863, "lng":30.5541549},
{"address":"Київ редутний  13", "lat":50.428069, "lng":30.5538},
{"address":"Київ редутний  148", "lat":50.427848, "lng":30.5543722},
{"address":"Київ редутний  15", "lat":50.428228, "lng":30.55377},
{"address":"Київ редутний  17", "lat":50.428396, "lng":30.553765},
{"address":"Київ редутний  194", "lat":50.427848, "lng":30.5543722}
]},
{"address":"Київ, вул. Лейпцігська 11а", "title":"ТВО №218 ВД №27", "lat":50.4501, "lng":30.523400000000038, "bounds":
[{"address":"Київ лейпцігська  12", "lat":50.4501, "lng":30.5234},
{"address":"Київ лейпцігська  14", "lat":50.4501, "lng":30.5234},
{"address":"Київ лейпцігська  16.", "lat":50.4501, "lng":30.5234},
{"address":"Київ цитадельна  5", "lat":50.43341299999999, "lng":30.548409},
{"address":"Київ цитадельна  7", "lat":50.432413, "lng":30.547544},
{"address":"Київ цитадельна  9.", "lat":50.432159, "lng":30.546455},
{"address":"Київ московська  41.", "lat":50.431161, "lng":30.546421}
]},
{"address":"Київ, вул. Лейпцігська 11а", "title":"ТВО №218 ВД №28", "lat":50.4501, "lng":30.523400000000038, "bounds":
[{"address":"Київ старонаводницька  4", "lat":50.428099, "lng":30.544507},
{"address":"Київ старонаводницька  4а", "lat":50.427858, "lng":30.543247},
{"address":"Київ старонаводницька  4б", "lat":50.427202, "lng":30.543704},
{"address":"Київ старонаводницька  4в", "lat":50.42722, "lng":30.542132},
{"address":"Київ старонаводницька  6", "lat":50.428465, "lng":30.546263},
{"address":"Київ старонаводницька  6а", "lat":50.42897600000001, "lng":30.547399},
{"address":"Київ старонаводницька  6б", "lat":50.42771, "lng":30.546623},
{"address":"Київ старонаводницька  8", "lat":50.428673, "lng":30.548518},
{"address":"Київ старонаводницька  8а", "lat":50.428037, "lng":30.548824},
{"address":"Київ старонаводницька  8б", "lat":50.42704699999999, "lng":30.54876},
{"address":"Київ старонаводницька  12", "lat":50.426521, "lng":30.551358},
{"address":"Київ старонаводницька  13", "lat":50.4264286, "lng":30.5433226},
{"address":"Київ старонаводницька  13а", "lat":50.4264286, "lng":30.5433226},
{"address":"Київ старонаводницька  15г.", "lat":50.4297677, "lng":30.5479519}
]},
{"address":"Київ, Печерський узвіз 13", "title":"ТВО №218 ВД №29", "lat":50.436326, "lng":30.534425000000056, "bounds":
[{"address":"Київ печерський узвіз  22", "lat":50.4361273, "lng":30.5387863},
{"address":"Київ печерський узвіз  6.", "lat":50.436072, "lng":30.533086},
{"address":"Київ мечникова  7", "lat":50.437396, "lng":30.532243},
{"address":"Київ мечникова  7a", "lat":50.437396, "lng":30.532243},
{"address":"Київ мечникова  8", "lat":50.436843, "lng":30.529728},
{"address":"Київ мечникова  10", "lat":50.436268, "lng":30.531657},
{"address":"Київ мечникова  14", "lat":50.437015, "lng":30.532915},
{"address":"Київ мечникова  16", "lat":50.437341, "lng":30.53418},
{"address":"Київ мечникова  18", "lat":50.43776700000001, "lng":30.53576899999999},
{"address":"Київ мечникова  20", "lat":50.437602, "lng":30.536226},
{"address":"Київ мечникова  22а.", "lat":50.438068, "lng":30.536844}
]},
{"address":"Київ, вул. Мечникова 3", "title":"ТВО №218 ВД №30", "lat":50.437681, "lng":30.529228999999987, "bounds":
[{"address":"Київ лесі українки  2", "lat":50.43798400000001, "lng":30.525297},
{"address":"Київ лесі українки  3", "lat":50.43629, "lng":30.528799},
{"address":"Київ лесі українки  4", "lat":50.437497, "lng":30.525916},
{"address":"Київ лесі українки  5", "lat":50.435235, "lng":30.530123},
{"address":"Київ лесі українки  5a", "lat":50.435235, "lng":30.530123},
{"address":"Київ лесі українки  6", "lat":50.43701799999999, "lng":30.526584},
{"address":"Київ лесі українки  7", "lat":50.4342558, "lng":30.531345},
{"address":"Київ лесі українки  7б.", "lat":50.4342558, "lng":30.531345},
{"address":"Київ госпітальна  2.", "lat":50.437802, "lng":30.524432},
{"address":"Київ мечникова  4", "lat":50.4376246, "lng":30.528207},
{"address":"Київ мечникова  6.", "lat":50.437055, "lng":30.52871}
]},
{"address":"Київ,вул. Шовковична, 39/1", "title":"ТВО №218 ВД №31", "lat":50.439871, "lng":30.527068999999983, "bounds":
[{"address":"Київ міська клінічна лікарня (урологічний корпус лікарні) ", "lat":50.4501, "lng":30.5234}
]},
{"address":"Київ, бул. Лесі Українки 8", "title":"ТВО №218 ВД №32", "lat":50.436478, "lng":30.527273000000037, "bounds":
[{"address":"Київ лесі українки  8", "lat":50.436478, "lng":30.527273},
{"address":"Київ лесі українки  10", "lat":50.435826, "lng":30.528114},
{"address":"Київ лесі українки  10а", "lat":50.435139, "lng":30.52798},
{"address":"Київ лесі українки  12", "lat":50.434906, "lng":30.529242},
{"address":"Київ лесі українки  14", "lat":50.433938, "lng":30.530446},
{"address":"Київ лесі українки  14а", "lat":50.433231, "lng":30.530519},
{"address":"Київ лесі українки  16", "lat":50.433145, "lng":30.531408},
{"address":"Київ лесі українки  16а", "lat":50.432589, "lng":30.53131},
{"address":"Київ лесі українки  18а", "lat":50.43192699999999, "lng":30.532124},
{"address":"Київ лесі українки  20.", "lat":50.4262209, "lng":30.5407313},
{"address":"Київ госпітальна  16", "lat":50.430366, "lng":30.532754},
{"address":"Київ госпітальна  18а", "lat":50.43424599999999, "lng":30.528717},
{"address":"Київ госпітальна  24.", "lat":50.432708, "lng":30.529609},
{"address":"Київ госпітальний  1а.", "lat":50.435449, "lng":30.52711}
]},
{"address":"Київ, вул. Госпітальна, 18", "title":"ТВО №218 ВД №33", "lat":50.43424599999999, "lng":30.52871700000003, "bounds":
[{"address":"Київ україни ", "lat":50.45, "lng":30.5238889}
]},
{"address":"Київ, вул. Арсенальна, 5", "title":"ТВО №218 ВД №34", "lat":50.429891, "lng":30.539219000000003, "bounds":
[{"address":"Київ пологовий  1", "lat":49.5845947, "lng":34.5247803}
]},
{"address":"Київ, вул. Немировича - Данченка 2", "title":"ТВО №218 ВД №35", "lat":50.432045, "lng":30.539876999999933, "bounds":
[{"address":"Київ лесі українки  9", "lat":50.43175799999999, "lng":30.534376},
{"address":"Київ лесі українки  9в", "lat":50.43175799999999, "lng":30.534376},
{"address":"Київ лесі українки  11", "lat":50.431012, "lng":30.535321},
{"address":"Київ лесі українки  11а", "lat":50.43131100000001, "lng":30.535537},
{"address":"Київ лесі українки  13", "lat":50.43075839999999, "lng":30.5360323},
{"address":"Київ лесі українки  15", "lat":50.430294, "lng":30.536212},
{"address":"Київ 15а.. немировича данченка  1", "lat":50.431383, "lng":30.539587},
{"address":"Київ 15а.. немировича данченка  5", "lat":50.429998, "lng":30.537557},
{"address":"Київ 15а.. немировича данченка  143", "lat":50.4303497, "lng":30.5374929},
{"address":"Київ 15а.. немировича данченка  16а", "lat":50.430511, "lng":30.536788},
{"address":"Київ арсенальна  14", "lat":50.4310305, "lng":30.5373204},
{"address":"Київ арсенальна  15", "lat":50.430954, "lng":30.537222},
{"address":"Київ арсенальна  17", "lat":50.431517, "lng":30.536054},
{"address":"Київ арсенальна  20..", "lat":50.431459, "lng":30.537184},
{"address":"Київ арсенальний  5..", "lat":50.431525, "lng":30.537745},
{"address":"Київ ластовського  3", "lat":50.430166, "lng":30.540026},
{"address":"Київ ластовського  3а", "lat":50.430543, "lng":30.540615},
{"address":"Київ ластовського  5", "lat":50.430326, "lng":30.5403},
{"address":"Київ лєскова  1а", "lat":50.431114, "lng":30.540819},
{"address":"Київ лєскова  3", "lat":50.430729, "lng":30.53999499999999},
{"address":"Київ лєскова  3а", "lat":50.430936, "lng":30.540308},
{"address":"Київ лєскова  6", "lat":50.430906, "lng":30.539489},
{"address":"Київ лєскова  8", "lat":50.430568, "lng":30.538954},
{"address":"Київ кутузова  3", "lat":50.43134269999999, "lng":30.5436045},
{"address":"Київ кутузова  5..", "lat":50.51648900000001, "lng":30.579131},
{"address":"Київ кутузова 14.. ", "lat":50.427076, "lng":30.536342}
]},
{"address":"Київ, вул. Каменєва 1", "title":"ТВО №218 ВД №36", "lat":50.422718, "lng":30.547289999999975, "bounds":
[{"address":"Київ щорса  35", "lat":50.427865, "lng":30.534046},
{"address":"Київ щорса  37.", "lat":50.427283, "lng":30.535009},
{"address":"Київ лесі українки  24", "lat":50.429268, "lng":30.536156},
{"address":"Київ лесі українки  24б.", "lat":50.429458, "lng":30.534703},
{"address":"Київ каменева  1.", "lat":50.422718, "lng":30.54729}
]},
{"address":"Київ, пров. Лабораторний, 18", "title":"ТВО №218 ВД №37", "lat":50.428084, "lng":30.52801599999998, "bounds":
[{"address":"Київ лікарня  17", "lat":48.0023384, "lng":37.7667274}
]},
{"address":"Київ, вул. Щорса 31", "title":"ТВО №218 ВД №38", "lat":50.428318, "lng":30.53172100000006, "bounds":
[{"address":"Київ щорса  17", "lat":50.425956, "lng":30.526967},
{"address":"Київ щорса  21", "lat":50.427065, "lng":30.528572},
{"address":"Київ щорса  23", "lat":50.427415, "lng":30.52875299999999},
{"address":"Київ щорса  25", "lat":50.42763000000001, "lng":30.52935},
{"address":"Київ щорса  26", "lat":50.427133, "lng":30.529826},
{"address":"Київ щорса  27", "lat":50.428076, "lng":30.529923},
{"address":"Київ щорса  27а", "lat":50.428198, "lng":30.529097},
{"address":"Київ щорса  29", "lat":50.428261, "lng":30.530845},
{"address":"Київ щорса  29а", "lat":50.42901800000001, "lng":30.530516},
{"address":"Київ щорса  31", "lat":50.428318, "lng":30.53172099999999},
{"address":"Київ щорса  33.", "lat":50.428572, "lng":30.532809},
{"address":"Київ лабораторний  22", "lat":50.428638, "lng":30.52861},
{"address":"Київ лабораторний  24", "lat":50.42880100000001, "lng":30.529762},
{"address":"Київ лабораторний  26", "lat":50.428987, "lng":30.531896},
{"address":"Київ лабораторний  26а.", "lat":50.429201, "lng":30.531449},
{"address":"Київ лесі українки  202", "lat":50.4291639, "lng":30.5366893}
]},
{"address":"Київ, вул. Щорса №31", "title":"ТВО №218 ВД №39", "lat":50.428318, "lng":30.53172100000006, "bounds":
[{"address":"Київ щорса  32", "lat":50.4278483, "lng":30.5320995},
{"address":"Київ щорса  32а", "lat":50.426725, "lng":30.531647},
{"address":"Київ щорса  32б", "lat":50.4278483, "lng":30.5320995},
{"address":"Київ щорса  32в", "lat":50.42522570000001, "lng":30.5315638},
{"address":"Київ щорса  36а", "lat":50.424883, "lng":30.535132},
{"address":"Київ щорса  36б.", "lat":50.4258436, "lng":30.5349293},
{"address":"Київ тверський тупик  6", "lat":50.42327770000001, "lng":30.5317262},
{"address":"Київ тверський тупик  10.", "lat":50.423814, "lng":30.532289}
]},
{"address":"Київ, пров. Лабораторний 24", "title":"ТВО №218 ВД №40", "lat":50.42880100000001, "lng":30.529762000000005, "bounds":
[{"address":"Київ щорса  34", "lat":50.426675, "lng":30.534461},
{"address":"Київ щорса  38", "lat":50.424237, "lng":30.537763},
{"address":"Київ щорса  44.", "lat":50.424357, "lng":30.541938}
]},
{"address":"Київ, бул. Лесі Українки 26", "title":"ТВО №218 ВД №41", "lat":50.4258606, "lng":30.53904680000005, "bounds":
[{"address":"Київ лесі українки  17", "lat":50.4260333, "lng":30.5409636},
{"address":"Київ лесі українки  19", "lat":50.428467, "lng":30.53847499999999},
{"address":"Київ лесі українки  21", "lat":50.426692, "lng":30.54146699999999},
{"address":"Київ лесі українки  28", "lat":50.4253337, "lng":30.5411416},
{"address":"Київ лесі українки  28а.", "lat":50.424704, "lng":30.540062}
]},
{"address":"Київ, бул. Л. Українки 32 А", "title":"ТВО №218 ВД №42", "lat":50.421406, "lng":30.54358000000002, "bounds":
[{"address":"Київ лесі українки  21а", "lat":50.425871, "lng":30.54244},
{"address":"Київ лесі українки  21б", "lat":50.425095, "lng":30.543422},
{"address":"Київ лесі українки  29", "lat":50.420557, "lng":30.54742},
{"address":"Київ лесі українки  30", "lat":50.5260525, "lng":30.590438},
{"address":"Київ лесі українки  30а", "lat":50.422999, "lng":30.54259},
{"address":"Київ лесі українки  30б", "lat":50.423573, "lng":30.541646},
{"address":"Київ івана кудрі  38", "lat":50.421092, "lng":30.542076},
{"address":"Київ івана кудрі  38а", "lat":50.420793, "lng":30.542996},
{"address":"Київ івана кудрі  38б", "lat":50.42048, "lng":30.54246599999999},
{"address":"Київ івана кудрі  412", "lat":50.417224, "lng":30.5375929},
{"address":"Київ івана кудрі  42", "lat":50.42204100000001, "lng":30.54335399999999},
{"address":"Київ івана кудрі  43.", "lat":50.422413, "lng":30.542884},
{"address":"Київ командарма камєнева  4", "lat":50.42216699999999, "lng":30.546967},
{"address":"Київ командарма камєнева  4a", "lat":50.42216699999999, "lng":30.546967},
{"address":"Київ командарма камєнева  6а.", "lat":50.422403, "lng":30.547489},
{"address":"Київ чигоріна  16", "lat":50.42115099999999, "lng":30.539106},
{"address":"Київ чигоріна  18", "lat":50.42175899999999, "lng":30.53956},
{"address":"Київ чигоріна  55", "lat":50.420233, "lng":30.537568},
{"address":"Київ чигоріна  59", "lat":50.4219, "lng":30.539021},
{"address":"Київ чигоріна  59а", "lat":50.422317, "lng":30.540307},
{"address":"Київ чигоріна  61", "lat":50.4223, "lng":30.541955},
{"address":"Київ чигоріна  61а", "lat":50.42283, "lng":30.541828}
]},
{"address":"Київ, бул.Л.Українки 32-А", "title":"ТВО №218 ВД №43", "lat":50.421406, "lng":30.54358000000002, "bounds":
[{"address":"Київ лесі українки  23", "lat":50.424099, "lng":30.543527},
{"address":"Київ лесі українки  25", "lat":50.423461, "lng":30.545519},
{"address":"Київ лесі українки  360", "lat":50.4291639, "lng":30.5366893},
{"address":"Київ лесі українки  36б", "lat":50.52654, "lng":30.590651},
{"address":"Київ лесі українки  36в.", "lat":50.420277, "lng":30.545985},
{"address":"Київ дружби народів  25", "lat":50.4183626, "lng":30.5438322},
{"address":"Київ дружби народів  27", "lat":50.419101, "lng":30.545212},
{"address":"Київ дружби народів  32", "lat":50.418206, "lng":30.546471},
{"address":"Київ дружби народів  32а.", "lat":50.417552, "lng":30.546586},
{"address":"Київ кіквідзе  24.", "lat":50.4106554, "lng":30.5496778},
{"address":"Київ верхня  3.", "lat":50.421983, "lng":30.549306},
{"address":"Київ командарма камєнева  8", "lat":50.422591, "lng":30.548862},
{"address":"Київ командарма камєнева  8а.", "lat":50.423465, "lng":30.548756}
]},
{"address":"Київ, вул. Івана Кудрі №33", "title":"ТВО №218 ВД №44", "lat":50.41849000000001, "lng":30.538358000000017, "bounds":
[{"address":"Київ івана кудрі  30", "lat":50.419244, "lng":30.540175},
{"address":"Київ івана кудрі  31", "lat":50.41773999999999, "lng":30.537667},
{"address":"Київ івана кудрі  31а", "lat":50.41751499999999, "lng":30.53744},
{"address":"Київ івана кудрі  32", "lat":50.419798, "lng":30.540835},
{"address":"Київ івана кудрі  34", "lat":50.420123, "lng":30.541902},
{"address":"Київ івана кудрі  35а", "lat":50.419582, "lng":30.539656},
{"address":"Київ івана кудрі  36", "lat":50.420594, "lng":30.54159899999999},
{"address":"Київ івана кудрі  39", "lat":50.42106099999999, "lng":30.541125},
{"address":"Київ івана кудрі  39а.", "lat":50.421024, "lng":30.540006},
{"address":"Київ патріса лумумби 235. ", "lat":50.419933, "lng":30.5342399},
{"address":"Київ глазунова  2", "lat":50.41760799999999, "lng":30.536908}
]},
{"address":"Київ, вул. Івана Кудрі 29", "title":"ТВО №218 ВД №45", "lat":50.41698599999999, "lng":30.536474, "bounds":
[{"address":"Київ івана кудрі  20а", "lat":50.41552799999999, "lng":30.536326},
{"address":"Київ івана кудрі  20б", "lat":50.416254, "lng":30.537091},
{"address":"Київ івана кудрі  22", "lat":50.4151812, "lng":30.5338149},
{"address":"Київ івана кудрі  22а.", "lat":50.417568, "lng":30.539003},
{"address":"Київ чигоріна  2", "lat":50.416336, "lng":30.535511},
{"address":"Київ чигоріна  4", "lat":50.41714, "lng":30.535895},
{"address":"Київ чигоріна  4а.", "lat":50.41714, "lng":30.535895},
{"address":"Київ глазунова  47", "lat":50.41859710000001, "lng":30.533816}
]},
{"address":"Київ, вул. Івана Кудрі 22а", "title":"ТВО №218 ВД №46", "lat":50.417568, "lng":30.53900299999998, "bounds":
[]},
{"address":"Київ, вул. Патріса Лумумби 17", "title":"ТВО №218 ВД №47", "lat":50.42052700000001, "lng":30.53513799999996, "bounds":
[{"address":"Київ патріса лумумби  13", "lat":50.420613, "lng":30.533359},
{"address":"Київ патріса лумумби  15", "lat":50.420393, "lng":30.534084},
{"address":"Київ патріса лумумби  16", "lat":50.4199336, "lng":30.5342882},
{"address":"Київ патріса лумумби  19", "lat":50.419774, "lng":30.536503},
{"address":"Київ патріса лумумби  20", "lat":50.418252, "lng":30.539979},
{"address":"Київ патріса лумумби  22", "lat":50.41778799999999, "lng":30.540714},
{"address":"Київ миколи раєвського  23а", "lat":50.420764, "lng":30.53609399999999},
{"address":"Київ миколи раєвського  25", "lat":50.42136499999999, "lng":30.536441},
{"address":"Київ миколи раєвського  28", "lat":50.418705, "lng":30.535453},
{"address":"Київ миколи раєвського  34.", "lat":50.420489, "lng":30.536527},
{"address":"Київ чигоріна  49", "lat":50.418446, "lng":30.536493},
{"address":"Київ івана кудрі  285", "lat":50.417224, "lng":30.5375929},
{"address":"Київ івана кудрі  35б", "lat":50.419837, "lng":30.538903},
{"address":"Київ івана кудрі  37", "lat":50.420203, "lng":30.540259},
{"address":"Київ івана кудрі  37а", "lat":50.420327, "lng":30.539402}
]},
{"address":"Київ, вул. Бастіонна №7", "title":"ТВО №218 ВД №48", "lat":50.418762, "lng":30.551778000000013, "bounds":
[{"address":"Київ бастіонна  16", "lat":50.415733, "lng":30.554694},
{"address":"Київ бастіонна  32", "lat":50.4162082, "lng":30.5555197},
{"address":"Київ бастіонна  53", "lat":50.4162082, "lng":30.5555197},
{"address":"Київ бастіонна  5а", "lat":50.419296, "lng":30.551945},
{"address":"Київ бастіонна  9.", "lat":50.417784, "lng":30.555103}
]},
{"address":"Київ, вул. Тімірязєва,1", "title":"ТВО №218 ВД №49", "lat":46.393047, "lng":30.742027000000007, "bounds":
[{"address":"Київ бастіонна  11а", "lat":50.41714, "lng":30.554854},
{"address":"Київ бастіонна  13", "lat":50.41666799999999, "lng":30.555368},
{"address":"Київ бастіонна  15.", "lat":50.41616699999999, "lng":30.556147},
{"address":"Київ вільшанська парна сторона  6", "lat":50.4501, "lng":30.5234},
{"address":"Київ непарна сторона  15", "lat":50.4501, "lng":30.5234},
{"address":"Київ включно. ", "lat":50.4501, "lng":30.5234},
{"address":"Київ дубенська парна сторона. ", "lat":50.4501, "lng":30.5234},
{"address":"Київ звіринецька парна сторона  16", "lat":50.4501, "lng":30.5234},
{"address":"Київ непарна сторона  250", "lat":50.4501, "lng":30.5234},
{"address":"Київ включно. ", "lat":50.4501, "lng":30.5234},
{"address":"Київ тімірязєва парна сторона  20б", "lat":50.4501, "lng":30.5234},
{"address":"Київ включно. ", "lat":50.4501, "lng":30.5234},
{"address":"Київ парна сторона. ", "lat":50.4501, "lng":30.5234}
]},
{"address":"Київ, вул. Тімірязева №36", "title":"ТВО №218 ВД №50", "lat":46.398235, "lng":30.739498000000026, "bounds":
[{"address":"Київ вільшанська парна сторона  8", "lat":50.4501, "lng":30.5234},
{"address":"Київ непарна сторона  17.", "lat":50.4501, "lng":30.5234},
{"address":"Київ дубенська непарна сторона. ", "lat":50.4501, "lng":30.5234},
{"address":"Київ звіринецька парна сторона  18", "lat":50.4501, "lng":30.5234},
{"address":"Київ непарна сторона 279. ", "lat":50.4501, "lng":30.5234},
{"address":"Київ тімірязєва парна сторона  22", "lat":50.4501, "lng":30.5234},
{"address":"Київ непарна повністю. ", "lat":50.4501, "lng":30.5234},
{"address":"Київ непарна сторона. ", "lat":50.4501, "lng":30.5234}
]},
{"address":"Київ, бул. Дружби народів №28/2", "title":"ТВО №218 ВД №51", "lat":50.411203, "lng":30.52919399999996, "bounds":
[{"address":"Київ дружби народів  17", "lat":50.416521, "lng":30.539033},
{"address":"Київ дружби народів  17а", "lat":50.416521, "lng":30.539033},
{"address":"Київ дружби народів  18", "lat":50.415112, "lng":30.540069},
{"address":"Київ дружби народів  19а", "lat":50.417039, "lng":30.54024},
{"address":"Київ дружби народів  20", "lat":50.415637, "lng":30.54099099999999},
{"address":"Київ дружби народів  21", "lat":50.417382, "lng":30.541231},
{"address":"Київ дружби народів  22", "lat":50.415844, "lng":30.541936},
{"address":"Київ дружби народів  24", "lat":50.4179839, "lng":30.544298},
{"address":"Київ дружби народів  26", "lat":50.4179839, "lng":30.544298},
{"address":"Київ дружби народів  28а", "lat":50.416264, "lng":30.544878},
{"address":"Київ дружби народів  30.", "lat":50.417246, "lng":30.546125},
{"address":"Київ німанська  2.", "lat":50.416699, "lng":30.545277},
{"address":"Київ фесора підвисоцького  3", "lat":50.4501, "lng":30.5234},
{"address":"Київ фесора підвисоцького  3а", "lat":50.4501, "lng":30.5234},
{"address":"Київ фесора підвисоцького  6", "lat":50.4501, "lng":30.5234},
{"address":"Київ фесора підвисоцького  6а.", "lat":50.4501, "lng":30.5234},
{"address":"Київ михайла драгомирова  6б.", "lat":50.4501, "lng":30.5234}
]},
{"address":"Київ, вул. Професора Підвисоцького, 14", "title":"ТВО №218 ВД №52", "lat":50.415417, "lng":30.550340000000006, "bounds":
[{"address":"Київ лікарня  12", "lat":50.4141309, "lng":30.5423503}
]},
{"address":"Київ, вул. Бастіона, 7", "title":"ТВО №218 ВД №53", "lat":50.418762, "lng":30.551778000000013, "bounds":
[{"address":"Київ кіквідзе  1", "lat":50.417292, "lng":30.549853},
{"address":"Київ кіквідзе  1а", "lat":50.417292, "lng":30.549853},
{"address":"Київ кіквідзе  3", "lat":50.416793, "lng":30.549415},
{"address":"Київ кіквідзе  4", "lat":50.4179, "lng":30.548525},
{"address":"Київ кіквідзе  4a", "lat":50.4179, "lng":30.548525},
{"address":"Київ кіквідзе  5", "lat":50.416284, "lng":30.549861},
{"address":"Київ кіквідзе  6", "lat":50.416943, "lng":30.548538},
{"address":"Київ кіквідзе  6а", "lat":50.416507, "lng":30.548228},
{"address":"Київ кіквідзе  71.", "lat":50.4024204, "lng":30.5517938},
{"address":"Київ михайла драгомирова  2", "lat":50.4501, "lng":30.5234},
{"address":"Київ михайла драгомирова  4", "lat":50.4501, "lng":30.5234},
{"address":"Київ михайла драгомирова  8", "lat":50.4501, "lng":30.5234},
{"address":"Київ михайла драгомирова  100", "lat":50.4501, "lng":30.5234},
{"address":"Київ михайла драгомирова  10а.", "lat":50.4501, "lng":30.5234},
{"address":"Київ німанська  3", "lat":50.41707599999999, "lng":30.54551799999999},
{"address":"Київ німанська  4", "lat":50.416432, "lng":30.546481},
{"address":"Київ німанська  5", "lat":50.416803, "lng":30.546552},
{"address":"Київ німанська  6", "lat":50.416261, "lng":30.54619},
{"address":"Київ німанська  7", "lat":50.416796, "lng":30.547678},
{"address":"Київ німанська  10.", "lat":50.416451, "lng":30.54735},
{"address":"Київ фесора підвисоцького  5", "lat":50.4501, "lng":30.5234},
{"address":"Київ фесора підвисоцького  7.", "lat":50.4501, "lng":30.5234}
]},
{"address":"Київ, вул. Катерини Білокур № 3", "title":"ТВО №218 ВД №54", "lat":50.416372, "lng":30.55367899999999, "bounds":
[{"address":"Київ кіквідзе  10", "lat":50.41527199999999, "lng":30.548488},
{"address":"Київ кіквідзе  10а", "lat":50.414987, "lng":30.547838},
{"address":"Київ кіквідзе  12", "lat":50.41477399999999, "lng":30.548484},
{"address":"Київ кіквідзе  12a", "lat":50.41477399999999, "lng":30.548484},
{"address":"Київ кіквідзе  14", "lat":50.414161, "lng":30.54849},
{"address":"Київ кіквідзе  14в", "lat":50.414161, "lng":30.54849},
{"address":"Київ кіквідзе  16", "lat":50.413635, "lng":30.54849},
{"address":"Київ кіквідзе  18", "lat":50.41307, "lng":30.548582},
{"address":"Київ кіквідзе  18а", "lat":50.41315900000001, "lng":30.547945},
{"address":"Київ кіквідзе  18б", "lat":50.413726, "lng":30.547267},
{"address":"Київ кіквідзе  20", "lat":50.41238999999999, "lng":30.548702},
{"address":"Київ кіквідзе  22", "lat":50.411739, "lng":30.548812},
{"address":"Київ кіквідзе  26", "lat":50.411126, "lng":30.54900599999999},
{"address":"Київ кіквідзе  28.", "lat":50.41054399999999, "lng":30.54911499999999},
{"address":"Київ фесора підвисоцького  12", "lat":50.4501, "lng":30.5234},
{"address":"Київ фесора підвисоцького  12a", "lat":50.4501, "lng":30.5234}
]},
{"address":"Київ, вул. Катерини Білокур №3", "title":"ТВО №218 ВД №55", "lat":50.416372, "lng":30.55367899999999, "bounds":
[{"address":"Київ бастіонна  4", "lat":50.417879, "lng":30.550948},
{"address":"Київ бастіонна  10", "lat":50.417157, "lng":30.553801},
{"address":"Київ бастіонна  12", "lat":50.416616, "lng":30.554287},
{"address":"Київ бастіонна  14", "lat":50.41621199999999, "lng":30.554883},
{"address":"Київ бастіонна  14а", "lat":50.415941, "lng":30.554016},
{"address":"Київ бастіонна  16..", "lat":50.415733, "lng":30.554694},
{"address":"Київ катерини білокур  1", "lat":50.417157, "lng":30.55313},
{"address":"Київ катерини білокур  2", "lat":50.41675540000001, "lng":30.5524547},
{"address":"Київ катерини білокур  4", "lat":50.417069, "lng":30.552356},
{"address":"Київ катерини білокур  57", "lat":50.4163277, "lng":30.55208379999999},
{"address":"Київ катерини білокур  6", "lat":50.41690699999999, "lng":30.551428},
{"address":"Київ катерини білокур  8", "lat":50.41639499999999, "lng":30.551869},
{"address":"Київ катерини білокур  105", "lat":50.4163277, "lng":30.55208379999999},
{"address":"Київ кіквідзе  92", "lat":50.4024204, "lng":30.5517938},
{"address":"Київ кіквідзе  36..", "lat":50.40666400000001, "lng":30.55188699999999},
{"address":"Київ підвисоцького  14", "lat":50.415417, "lng":30.55034},
{"address":"Київ підвисоцького  16", "lat":50.415324, "lng":30.551521},
{"address":"Київ підвисоцького  18", "lat":50.4152911, "lng":30.5530264},
{"address":"Київ підвисоцького  19", "lat":50.41552799999999, "lng":30.553054},
{"address":"Київ підвисоцького  20", "lat":50.41507499999999, "lng":30.554217},
{"address":"Київ підвисоцького  21..", "lat":50.41545499999999, "lng":30.554002}
]},
{"address":"Київ, вул. Кіквідзе №33", "title":"ТВО №218 ВД №56", "lat":50.408814, "lng":30.551717000000053, "bounds":
[{"address":"Київ кіквідзе  19", "lat":50.41249, "lng":30.549414},
{"address":"Київ кіквідзе  21", "lat":50.411996, "lng":30.549498},
{"address":"Київ кіквідзе  23", "lat":50.411185, "lng":30.549731},
{"address":"Київ кіквідзе  25", "lat":50.410305, "lng":30.550301},
{"address":"Київ кіквідзе  25а", "lat":50.41058, "lng":30.550056},
{"address":"Київ кіквідзе  27", "lat":50.40996, "lng":30.550613},
{"address":"Київ кіквідзе  29", "lat":50.409617, "lng":30.550939},
{"address":"Київ кіквідзе  31", "lat":50.40927199999999, "lng":30.551261},
{"address":"Київ кіквідзе  33", "lat":50.408814, "lng":30.551717},
{"address":"Київ кіквідзе  34", "lat":50.407753, "lng":30.551564},
{"address":"Київ кіквідзе  35", "lat":50.40809100000001, "lng":30.552259},
{"address":"Київ кіквідзе  37", "lat":50.407359, "lng":30.552613},
{"address":"Київ кіквідзе  39", "lat":50.4068, "lng":30.552749},
{"address":"Київ кіквідзе  41.", "lat":50.40611, "lng":30.552784}
]},
{"address":"Київ, вул. Кіквідзе, 17/10", "title":"ТВО №218 ВД №57", "lat":50.413094, "lng":30.54932299999996, "bounds":
[{"address":"Київ кіквідзе  11", "lat":50.414776, "lng":30.549421},
{"address":"Київ кіквідзе  11б", "lat":50.41478799999999, "lng":30.551082},
{"address":"Київ кіквідзе  13", "lat":50.414218, "lng":30.54924099999999},
{"address":"Київ кіквідзе  13а", "lat":50.414038, "lng":30.549845},
{"address":"Київ кіквідзе  13б", "lat":50.414241, "lng":30.550915},
{"address":"Київ кіквідзе  13в", "lat":50.414765, "lng":30.550447},
{"address":"Київ кіквідзе  15", "lat":50.41366, "lng":30.549277},
{"address":"Київ кіквідзе  15а", "lat":50.413736, "lng":30.550354},
{"address":"Київ кіквідзе  15б", "lat":50.413617, "lng":30.549795},
{"address":"Київ кіквідзе  170", "lat":50.40994999999999, "lng":30.5502469},
{"address":"Київ кіквідзе  17a.", "lat":50.412752, "lng":30.550927}
]},
{"address":"Київ, вул. Кіквідзе №32", "title":"ТВО №218 ВД №58", "lat":50.40895800000001, "lng":30.550558000000024, "bounds":
[{"address":"Київ кіквідзе  28а", "lat":50.410168, "lng":30.549544},
{"address":"Київ кіквідзе  30", "lat":50.409667, "lng":30.550036},
{"address":"Київ кіквідзе  30а", "lat":50.409504, "lng":30.549237},
{"address":"Київ кіквідзе  32а", "lat":50.408276, "lng":30.550866},
{"address":"Київ кіквідзе  34а", "lat":50.407409, "lng":30.550311},
{"address":"Київ кіквідзе  38а", "lat":50.405632, "lng":30.55084},
{"address":"Київ кіквідзе  40а.", "lat":50.405899, "lng":30.55179},
{"address":"Київ залізничне шосе  49.", "lat":50.405607, "lng":30.544593}
]},
{"address":"Київ, вул. Товарна №1", "title":"ТВО №218 ВД №59", "lat":50.41321199999999, "lng":30.53840600000001, "bounds":
[{"address":"Київ дружби народів  14", "lat":50.41343, "lng":30.537547},
{"address":"Київ дружби народів  14а.", "lat":50.412943, "lng":30.537128}
]},
{"address":"Київ, бул. Дружби народів №12 Б", "title":"ТВО №218 ВД №60", "lat":50.412825, "lng":30.535918000000038, "bounds":
[{"address":"Київ дружби народів  4", "lat":50.41164500000001, "lng":30.530648},
{"address":"Київ дружби народів  6а", "lat":50.41143599999999, "lng":30.531824},
{"address":"Київ дружби народів  8a.", "lat":50.412306, "lng":30.532967},
{"address":"Київ залізничне шосе  2", "lat":50.40699, "lng":30.52972},
{"address":"Київ залізничне шосе  4", "lat":50.406332, "lng":30.531333},
{"address":"Київ залізничне шосе  4а", "lat":50.406332, "lng":30.531333},
{"address":"Київ залізничне шосе  5а", "lat":50.407619, "lng":30.528181},
{"address":"Київ залізничне шосе  5б", "lat":50.407459, "lng":30.528613},
{"address":"Київ залізничне шосе  5в.", "lat":50.407512, "lng":30.529147},
{"address":"Київ академіка філатова  3.", "lat":50.410709, "lng":30.530626}
]},
{"address":"Київ, бул. Дружби народів №12 б", "title":"ТВО №218 ВД №61", "lat":50.412825, "lng":30.535918000000038, "bounds":
[{"address":"Київ дружби народів  6", "lat":50.41191999999999, "lng":30.531835},
{"address":"Київ дружби народів  6б", "lat":50.411618, "lng":30.532517},
{"address":"Київ дружби народів  8", "lat":50.412306, "lng":30.532967},
{"address":"Київ дружби народів  9", "lat":50.414311, "lng":30.534086},
{"address":"Київ дружби народів  10", "lat":50.412874, "lng":30.534927},
{"address":"Київ дружби народів  10а", "lat":50.411983, "lng":30.53465},
{"address":"Київ дружби народів  11", "lat":50.413913, "lng":30.534756},
{"address":"Київ дружби народів  12", "lat":50.413373, "lng":30.536424},
{"address":"Київ дружби народів  13.", "lat":50.414451, "lng":30.536324},
{"address":"Київ івана кудрі  10", "lat":50.4142771, "lng":30.5327569},
{"address":"Київ івана кудрі  12", "lat":50.414739, "lng":30.53318999999999},
{"address":"Київ івана кудрі  14", "lat":50.414827, "lng":30.533669},
{"address":"Київ івана кудрі  16", "lat":50.414967, "lng":30.534343},
{"address":"Київ івана кудрі  16а", "lat":50.414551, "lng":30.53452},
{"address":"Київ івана кудрі  18", "lat":50.415114, "lng":30.535153},
{"address":"Київ івана кудрі  18", "lat":50.415114, "lng":30.535153},
{"address":"Київ івана кудрі  20.", "lat":50.415123, "lng":30.53596},
{"address":"Київ академіка філатова 10а. ", "lat":50.413813, "lng":30.533219}
]},
{"address":"Київ, вул. Шота Руставелі 47", "title":"ТВО №218 ВД №62", "lat":50.435172, "lng":30.519087000000013, "bounds":
[{"address":"Київ саксаганського  12а", "lat":50.436174, "lng":30.517375},
{"address":"Київ саксаганського  12б", "lat":50.43645799999999, "lng":30.517372},
{"address":"Київ червоноармійська  9", "lat":50.3771752, "lng":30.6927383},
{"address":"Київ червоноармійська  17а", "lat":50.439724, "lng":30.51836},
{"address":"Київ червоноармійська  17б", "lat":50.439349, "lng":30.518791},
{"address":"Київ червоноармійська  17в", "lat":50.439724, "lng":30.51836},
{"address":"Київ червоноармійська  23", "lat":50.4391195, "lng":30.5174661},
{"address":"Київ червоноармійська  23б", "lat":50.43843, "lng":30.517495},
{"address":"Київ червоноармійська  25", "lat":50.438846, "lng":30.516578},
{"address":"Київ червоноармійська  27", "lat":50.438513, "lng":30.516455},
{"address":"Київ червоноармійська  29", "lat":50.438138, "lng":30.516385},
{"address":"Київ червоноармійська  33", "lat":50.43781999999999, "lng":30.516418},
{"address":"Київ червоноармійська  35", "lat":50.437922, "lng":30.5158895},
{"address":"Київ червоноармійська  37", "lat":50.43733400000001, "lng":30.51646999999999},
{"address":"Київ червоноармійська  41", "lat":50.436653, "lng":30.51649099999999},
{"address":"Київ червоноармійська  43", "lat":50.43712499999999, "lng":30.5158813}
]},
{"address":"Київ, вул. Фізкультури №1", "title":"ТВО №218 ВД №63", "lat":50.43154089999999, "lng":30.519096900000022, "bounds":
[{"address":"Київ димитрова  6", "lat":50.430362, "lng":30.519611},
{"address":"Київ димитрова  16.", "lat":50.430352, "lng":30.517372},
{"address":"Київ саксаганського  5", "lat":50.435695, "lng":30.51969},
{"address":"Київ саксаганського  7", "lat":50.43570099999999, "lng":30.519388},
{"address":"Київ саксаганського  9", "lat":50.435644, "lng":30.519085},
{"address":"Київ саксаганського  13", "lat":50.4359208, "lng":30.51717},
{"address":"Київ саксаганського  13в", "lat":50.4359208, "lng":30.51717},
{"address":"Київ саксаганського  13г", "lat":50.4359208, "lng":30.51717},
{"address":"Київ саксаганського  15", "lat":50.43557699999999, "lng":30.517498},
{"address":"Київ червоноармійська  45", "lat":50.4369311, "lng":30.5158823},
{"address":"Київ червоноармійська  47", "lat":50.434891, "lng":30.516473},
{"address":"Київ червоноармійська  47в", "lat":50.43475, "lng":30.516948},
{"address":"Київ червоноармійська  49", "lat":50.43462299999999, "lng":30.51649},
{"address":"Київ червоноармійська  51", "lat":50.43419799999999, "lng":30.51644599999999},
{"address":"Київ червоноармійська  63", "lat":50.430704, "lng":30.517029},
{"address":"Київ червоноармійська  67", "lat":50.4328109, "lng":30.5159688},
{"address":"Київ червоноармійська  71.", "lat":50.43236719999999, "lng":30.5159737}
]},
{"address":"Київ, вул. Предславинська, 9", "title":"ТВО №218 ВД №64", "lat":50.427097, "lng":30.51983599999994, "bounds":
[{"address":"Київ київський міський пологовий  7", "lat":50.4501, "lng":30.5234}
]},
{"address":"Київ, вул. Червоноармійська №73", "title":"ТВО №218 ВД №65", "lat":50.427615, "lng":30.517108000000007, "bounds":
[{"address":"Київ дславинська  12", "lat":50.4501, "lng":30.5234},
{"address":"Київ дславинська  14", "lat":50.4501, "lng":30.5234},
{"address":"Київ дславинська  213", "lat":50.4501, "lng":30.5234},
{"address":"Київ дславинська  22", "lat":50.4501, "lng":30.5234},
{"address":"Київ дславинська  24", "lat":50.4501, "lng":30.5234},
{"address":"Київ дславинська  25", "lat":50.4501, "lng":30.5234},
{"address":"Київ дславинська  26а", "lat":50.4501, "lng":30.5234},
{"address":"Київ дславинська  29", "lat":50.4501, "lng":30.5234},
{"address":"Київ дславинська  30", "lat":50.4501, "lng":30.5234},
{"address":"Київ дславинська  311", "lat":50.4501, "lng":30.5234},
{"address":"Київ дславинська  31.", "lat":50.4501, "lng":30.5234},
{"address":"Київ ульянових  11", "lat":50.425253, "lng":30.51913},
{"address":"Київ ульянових  11а.", "lat":50.425253, "lng":30.51913},
{"address":"Київ червоноармійська  79", "lat":50.426233, "lng":30.517628},
{"address":"Київ червоноармійська  81", "lat":50.42597, "lng":30.51777},
{"address":"Київ червоноармійська  85", "lat":50.380961, "lng":30.681719},
{"address":"Київ червоноармійська  87", "lat":50.381421, "lng":30.682375},
{"address":"Київ червоноармійська  89", "lat":50.42503199999999, "lng":30.51845999999999},
{"address":"Київ червоноармійська  91", "lat":50.424519, "lng":30.518659},
{"address":"Київ червоноармійська  93", "lat":50.424354, "lng":30.519177},
{"address":"Київ червоноармійська  95", "lat":50.424147, "lng":30.518868},
{"address":"Київ червоноармійська  97", "lat":50.424008, "lng":30.51913},
{"address":"Київ червоноармійська  101", "lat":50.423619, "lng":30.519228},
{"address":"Київ 11113. ", "lat":50.4501, "lng":30.5234}
]},
{"address":"Київ, вул. А. Барбюса 9", "title":"ТВО №218 ВД №66", "lat":50.426672, "lng":30.52350899999999, "bounds":
[{"address":"Київ барбюса  5", "lat":50.428404, "lng":30.521961},
{"address":"Київ барбюса  5а", "lat":50.429087, "lng":30.521935},
{"address":"Київ барбюса  5б", "lat":50.428534, "lng":30.522828},
{"address":"Київ барбюса  5в", "lat":50.4295043, "lng":30.5230236},
{"address":"Київ барбюса  9а", "lat":50.427403, "lng":30.523605},
{"address":"Київ барбюса  11", "lat":50.4253759, "lng":30.5228836},
{"address":"Київ барбюса  13", "lat":50.425452, "lng":30.523163},
{"address":"Київ барбюса  22", "lat":50.425399, "lng":30.522494},
{"address":"Київ барбюса  26", "lat":50.4249291, "lng":30.5231549},
{"address":"Київ літня  25", "lat":50.426388, "lng":30.525377},
{"address":"Київ щорса  3", "lat":50.423491, "lng":30.519727},
{"address":"Київ щорса  7", "lat":50.52242400000001, "lng":30.593586},
{"address":"Київ щорса  15", "lat":50.42516699999999, "lng":30.524314},
{"address":"Київ (корп.  1", "lat":50.4374917, "lng":30.6227409},
{"address":"Київ (корп.  2", "lat":50.4373625, "lng":30.6204273},
{"address":"Київ (корп.  3", "lat":50.4366023, "lng":30.6208981},
{"address":"Київ (корп.  4)", "lat":50.4362386, "lng":30.62123029999999},
{"address":"Київ (корп.  18", "lat":50.4616074, "lng":30.339049},
{"address":"Київ лабораторний  4", "lat":50.42579, "lng":30.524015},
{"address":"Київ лабораторний  6", "lat":50.426299, "lng":30.524743}
]},
{"address":"Київ, вул. Предславинська 30 - А", "title":"ТВО №218 ВД №67", "lat":50.423288, "lng":30.521117000000004, "bounds":
[{"address":"Київ а.барбюса  32", "lat":50.42095, "lng":30.524864},
{"address":"Київ а.барбюса  40", "lat":50.420914, "lng":30.525395},
{"address":"Київ ковпака  3", "lat":50.417652, "lng":30.526464},
{"address":"Київ ковпака  4.", "lat":50.41865199999999, "lng":30.526834},
{"address":"Київ дславинська  34", "lat":50.4501, "lng":30.5234},
{"address":"Київ дславинська  35", "lat":50.4501, "lng":30.5234},
{"address":"Київ дславинська  38", "lat":50.4501, "lng":30.5234},
{"address":"Київ дславинська  47", "lat":50.4501, "lng":30.5234},
{"address":"Київ дславинська  49", "lat":50.4501, "lng":30.5234},
{"address":"Київ тверська  2", "lat":50.420319, "lng":30.525336},
{"address":"Київ тверська  6", "lat":50.419944, "lng":30.523363}
]},
{"address":"Київ, вул. Предславинська 30-А", "title":"ТВО №218 ВД №68", "lat":50.423288, "lng":30.521117000000004, "bounds":
[{"address":"Київ дружби народів  3", "lat":50.412022, "lng":30.527723},
{"address":"Київ дружби народів  3а", "lat":50.412264, "lng":30.528516},
{"address":"Київ дружби народів  3б", "lat":50.41249, "lng":30.529323},
{"address":"Київ дружби народів  7.", "lat":50.413353, "lng":30.532706},
{"address":"Київ івана кудрі  9", "lat":50.4146881, "lng":30.5311902},
{"address":"Київ івана кудрі  11", "lat":50.415209, "lng":30.53048699999999},
{"address":"Київ івана кудрі  13", "lat":50.4147459, "lng":30.5315051},
{"address":"Київ івана кудрі  15.", "lat":50.415399, "lng":30.53139},
{"address":"Київ філатова  12.", "lat":50.4151985, "lng":30.5317925},
{"address":"Київ ковпака  17.", "lat":50.41697, "lng":30.524388},
{"address":"Київ дславинська  51.", "lat":50.4501, "lng":30.5234},
{"address":"Київ червоноармійська  129", "lat":50.41679999999999, "lng":30.523534},
{"address":"Київ червоноармійська  131", "lat":50.416026, "lng":30.52402},
{"address":"Київ червоноармійська  145.", "lat":50.41154599999999, "lng":30.526921}
]},
{"address":"Київ, вул. Патриса Лумумби 13", "title":"ТВО №218 ВД №69", "lat":50.420613, "lng":30.53335900000002, "bounds":
[{"address":"Київ а.барбюса  47", "lat":50.418948, "lng":30.52775699999999},
{"address":"Київ а.барбюса  49", "lat":50.4191546, "lng":30.5268345},
{"address":"Київ а.барбюса  56", "lat":50.417602, "lng":30.527441},
{"address":"Київ а.барбюса  56", "lat":50.417602, "lng":30.527441},
{"address":"Київ а.барбюса  58", "lat":50.41683099999999, "lng":30.527833},
{"address":"Київ глазунова непарна сторона  3", "lat":50.4501, "lng":30.5234},
{"address":"Київ глазунова непарна сторона  13", "lat":50.4501, "lng":30.5234},
{"address":"Київ миколи раєвського  3", "lat":50.415923, "lng":30.533101},
{"address":"Київ миколи раєвського  –22", "lat":50.417491, "lng":30.534534},
{"address":"Київ п.лумумби  4", "lat":50.4206814, "lng":30.5311671},
{"address":"Київ п.лумумби  7", "lat":50.421162, "lng":30.530976},
{"address":"Київ п.лумумби  10", "lat":50.4204234, "lng":30.5322158},
{"address":"Київ (корп.  1", "lat":50.4374917, "lng":30.6227409},
{"address":"Київ (корп.  2", "lat":50.4373625, "lng":30.6204273},
{"address":"Київ (корп.  3)", "lat":50.4366023, "lng":30.6208981},
{"address":"Київ (корп.  10а", "lat":50.443954, "lng":30.358823},
{"address":"Київ (корп.  11", "lat":50.3868332, "lng":30.6957372},
{"address":"Київ чигоріна непарна сторона  3", "lat":50.4501, "lng":30.5234},
{"address":"Київ чигоріна непарна сторона  43", "lat":50.4501, "lng":30.5234},
{"address":"Київ тверський тупик  7", "lat":50.4236218, "lng":30.5316726},
{"address":"Київ тверський тупик  9.", "lat":50.42430299999999, "lng":30.531521}
]},
{"address":"Київ, майдан Незалежності, 2", "title":"ТВО №218 ВД №70", "lat":50.4505951, "lng":30.523226600000044, "bounds":
[{"address":"Київ мало підвальна  3", "lat":50.450546, "lng":30.519942},
{"address":"Київ мало підвальна  4", "lat":50.450576, "lng":30.519091},
{"address":"Київ мало підвальна  6", "lat":50.45039, "lng":30.518988},
{"address":"Київ мало підвальна  10", "lat":50.450031, "lng":30.51852599999999},
{"address":"Київ мало підвальна  120", "lat":50.4498068, "lng":30.515956},
{"address":"Київ мало підвальна  15", "lat":50.4498167, "lng":30.5185342},
{"address":"Київ мало підвальна  21", "lat":50.4496048, "lng":30.5178734},
{"address":"Київ шевченка тараса  7", "lat":50.4509595, "lng":30.5201549},
{"address":"Київ шевченка тараса  13", "lat":50.4511061, "lng":30.5191386},
{"address":"Київ софіївська  1", "lat":50.451198, "lng":30.52152},
{"address":"Київ софіївська  2", "lat":50.451605, "lng":30.5198},
{"address":"Київ софіївська  4", "lat":50.4514644, "lng":30.5209175},
{"address":"Київ софіївська  8", "lat":50.451849, "lng":30.519958},
{"address":"Київ софіївська  12", "lat":50.4519206, "lng":30.5191478},
{"address":"Київ софіївська  14", "lat":50.452168, "lng":30.518916},
{"address":"Київ софіївська  166", "lat":50.452114, "lng":30.518302},
{"address":"Київ софіївська  17", "lat":50.45230470000001, "lng":30.51754979999999},
{"address":"Київ софіївська  18а", "lat":50.452524, "lng":30.51727099999999},
{"address":"Київ софіївська  23", "lat":50.452212, "lng":30.517241},
{"address":"Київ софіївська  25", "lat":50.452233, "lng":30.517002},
{"address":"Київ іринінська  1", "lat":50.4501, "lng":30.5234},
{"address":"Київ михайлівський  4", "lat":50.508032, "lng":30.245396},
{"address":"Київ михайлівський  7", "lat":50.452898, "lng":30.519838},
{"address":"Київ михайлівський  8", "lat":50.453115, "lng":30.51946199999999},
{"address":"Київ михайлівський  9аб", "lat":50.452435, "lng":30.51944},
{"address":"Київ михайлівський  12в", "lat":50.45280100000001, "lng":30.518649},
{"address":"Київ михайлівський  14", "lat":50.452529, "lng":30.518387},
{"address":"Київ михайлівський  17", "lat":50.451828, "lng":30.518343},
{"address":"Київ михайлівський  20", "lat":50.451709, "lng":30.517802},
{"address":"Київ мала житомирська  3", "lat":50.451606, "lng":30.521526},
{"address":"Київ мала житомирська  5", "lat":50.452157, "lng":30.520706},
{"address":"Київ мала житомирська  7", "lat":50.452457, "lng":30.520576},
{"address":"Київ мала житомирська  10", "lat":50.45243199999999, "lng":30.521287},
{"address":"Київ мала житомирська  11", "lat":50.4533222, "lng":30.5199822},
{"address":"Київ мала житомирська  12а", "lat":50.452708, "lng":30.520875},
{"address":"Київ мала житомирська  13", "lat":50.4533261, "lng":30.51997879999999},
{"address":"Київ мала житомирська  14б", "lat":50.452878, "lng":30.520951},
{"address":"Київ мала житомирська  15аб", "lat":50.4501, "lng":30.5234},
{"address":"Київ мала житомирська  16б", "lat":50.45357, "lng":30.5197224},
{"address":"Київ мала житомирська  17", "lat":50.453593, "lng":30.519484},
{"address":"Київ мала житомирська  18а", "lat":50.453412, "lng":30.520184},
{"address":"Київ мала житомирська  20а", "lat":50.45391799999999, "lng":30.519844},
{"address":"Київ мала житомирська  20а1", "lat":50.45391799999999, "lng":30.519844},
{"address":"Київ 20бвг ", "lat":50.4501, "lng":30.5234},
{"address":"Київ тарасової алли  4аб", "lat":50.4501, "lng":30.5234},
{"address":"Київ тарасової алли  6а", "lat":50.45353, "lng":30.518735},
{"address":"Київ хрещатик  4", "lat":50.452301, "lng":30.526459},
{"address":"Київ хрещатик  8б", "lat":50.45214499999999, "lng":30.525716},
{"address":"Київ хрещатик  10в", "lat":50.452216, "lng":30.525282}
]},
{"address":"Київ, вул. Трьохсвятительська, 4", "title":"ТВО №218 ВД №71", "lat":50.454682, "lng":30.524419999999964, "bounds":
[{"address":"Київ трьохсвятительська  3", "lat":50.452659, "lng":30.526259},
{"address":"Київ трьохсвятительська  4а", "lat":50.455165, "lng":30.52499},
{"address":"Київ трьохсвятительська  6", "lat":50.45565, "lng":30.522719},
{"address":"Київ трьохсвятительська  6м", "lat":50.45565, "lng":30.522719},
{"address":"Київ трьохсвятительська  9", "lat":50.4543209, "lng":30.5236244},
{"address":"Київ трьохсвятительська  11", "lat":50.4501, "lng":30.5234},
{"address":"Київ трьохсвятительська  13.", "lat":50.454932, "lng":30.522044},
{"address":"Київ костьольна  3", "lat":50.451641, "lng":30.52317},
{"address":"Київ костьольна  4", "lat":50.4516, "lng":30.523652},
{"address":"Київ костьольна  5", "lat":50.451918, "lng":30.523437},
{"address":"Київ костьольна  6", "lat":50.451988, "lng":30.52406},
{"address":"Київ костьольна  7", "lat":50.452031, "lng":30.523582},
{"address":"Київ костьольна  8", "lat":50.45238699999999, "lng":30.524991},
{"address":"Київ костьольна  9", "lat":50.452274, "lng":30.52382},
{"address":"Київ костьольна  10", "lat":50.452708, "lng":30.52530999999999},
{"address":"Київ костьольна  11", "lat":50.452344, "lng":30.524019},
{"address":"Київ костьольна  15.", "lat":50.453253, "lng":30.523786},
{"address":"Київ володимирська  19", "lat":50.452979, "lng":30.517262},
{"address":"Київ володимирська  19а.", "lat":50.45277, "lng":30.517785},
{"address":"Київ михайлівська  2", "lat":50.45164, "lng":30.522653},
{"address":"Київ михайлівська  2в", "lat":50.45164, "lng":30.522653},
{"address":"Київ михайлівська  6а", "lat":50.45205499999999, "lng":30.522823},
{"address":"Київ михайлівська  6б", "lat":50.452013, "lng":30.523084},
{"address":"Київ михайлівська  7", "lat":50.45231099999999, "lng":30.521952},
{"address":"Київ михайлівська  8а", "lat":50.452226, "lng":30.522684},
{"address":"Київ михайлівська  9", "lat":50.452547, "lng":30.52188199999999},
{"address":"Київ михайлівська  12б", "lat":50.4525861, "lng":30.5220801},
{"address":"Київ михайлівська  13а", "lat":50.4531528, "lng":30.5211997},
{"address":"Київ михайлівська  15а", "lat":50.453453, "lng":30.521499},
{"address":"Київ михайлівська  16а", "lat":50.45312999999999, "lng":30.522642},
{"address":"Київ михайлівська  161", "lat":50.45323500000001, "lng":30.52184179999999},
{"address":"Київ михайлівська  16б", "lat":50.453274, "lng":30.522966},
{"address":"Київ михайлівська  18а", "lat":50.45364, "lng":30.522612},
{"address":"Київ михайлівська  19", "lat":50.45400799999999, "lng":30.52103899999999},
{"address":"Київ михайлівська  20б", "lat":50.453973, "lng":30.52203799999999},
{"address":"Київ михайлівська  21аб", "lat":50.4501, "lng":30.5234},
{"address":"Київ михайлівська  22аб", "lat":50.4501, "lng":30.5234},
{"address":"Київ 24абв ", "lat":50.4501, "lng":30.5234}
]},
{"address":"Київ, вул. Пушкінська 22,", "title":"ТВО №218 ВД №72", "lat":50.443847, "lng":30.51726400000007, "bounds":
[{"address":"Київ пушкінська  7", "lat":50.446861, "lng":30.519142},
{"address":"Київ пушкінська  8аб", "lat":50.4501, "lng":30.5234},
{"address":"Київ пушкінська  9аб", "lat":50.4501, "lng":30.5234},
{"address":"Київ пушкінська  10аб", "lat":50.4501, "lng":30.5234},
{"address":"Київ пушкінська  11", "lat":50.446025, "lng":30.518778},
{"address":"Київ пушкінська  11а", "lat":50.445797, "lng":30.518708},
{"address":"Київ 12абв  14", "lat":50.4501, "lng":30.5234},
{"address":"Київ 12абв  19аб", "lat":50.4501, "lng":30.5234},
{"address":"Київ 12абв  20аб", "lat":50.4501, "lng":30.5234},
{"address":"Київ 12абв  21", "lat":50.4501, "lng":30.5234},
{"address":"Київ 12абв  23аб", "lat":50.4501, "lng":30.5234},
{"address":"Київ 12абв  24б", "lat":50.4501, "lng":30.5234},
{"address":"Київ 12абв  25", "lat":50.4501, "lng":30.5234},
{"address":"Київ 12абв  36", "lat":50.4501, "lng":30.5234},
{"address":"Київ шевченка тараса  1б", "lat":50.44192899999999, "lng":30.519282},
{"address":"Київ шевченка тараса  2", "lat":50.44238310000001, "lng":30.5191003},
{"address":"Київ шевченка тараса  3", "lat":50.442224, "lng":30.518771},
{"address":"Київ шевченка тараса  6", "lat":50.442979, "lng":30.517904},
{"address":"Київ шевченка тараса  10", "lat":50.443239, "lng":30.516474},
{"address":"Київ хмельницького богдана  5", "lat":50.444854, "lng":30.519105},
{"address":"Київ хмельницького богдана  9бв", "lat":50.44486, "lng":30.516527},
{"address":"Київ хмельницького богдана  10", "lat":50.446175, "lng":30.517466},
{"address":"Київ хмельницького богдана  12", "lat":50.4454813, "lng":30.51668579999999},
{"address":"Київ хмельницького богдана  14", "lat":50.445959, "lng":30.51655409999999}
]},
{"address":"Київ, вул. Пушкінська, 22а", "title":"ТВО №218 ВД №73", "lat":50.44420299999999, "lng":30.516953000000058, "bounds":
[{"address":"Київ пушкінська  22а", "lat":50.44420299999999, "lng":30.516953}
]},
{"address":"Київ, вул. Прорізна №14", "title":"ТВО №218 ВД №74", "lat":50.448812, "lng":30.51775900000007, "bounds":
[{"address":"Київ різна  3", "lat":50.4501, "lng":30.5234},
{"address":"Київ різна  4", "lat":50.4501, "lng":30.5234},
{"address":"Київ різна  6", "lat":50.4501, "lng":30.5234},
{"address":"Київ різна  9", "lat":50.4501, "lng":30.5234},
{"address":"Київ різна  10", "lat":50.4501, "lng":30.5234},
{"address":"Київ різна  11", "lat":50.4501, "lng":30.5234},
{"address":"Київ різна  12", "lat":50.4501, "lng":30.5234},
{"address":"Київ різна  13", "lat":50.4501, "lng":30.5234},
{"address":"Київ різна  16", "lat":50.4501, "lng":30.5234},
{"address":"Київ різна  18", "lat":50.4501, "lng":30.5234},
{"address":"Київ різна  18г", "lat":50.4501, "lng":30.5234},
{"address":"Київ різна  19", "lat":50.4501, "lng":30.5234},
{"address":"Київ різна  20", "lat":50.4501, "lng":30.5234},
{"address":"Київ різна  21", "lat":50.4501, "lng":30.5234},
{"address":"Київ різна  22", "lat":50.4501, "lng":30.5234},
{"address":"Київ різна  23", "lat":50.4501, "lng":30.5234},
{"address":"Київ паторжинського  4", "lat":50.448901, "lng":30.51731299999999},
{"address":"Київ паторжинського  6", "lat":50.449088, "lng":30.517225},
{"address":"Київ паторжинського  14", "lat":50.450432, "lng":30.517884},
{"address":"Київ хрещатик  32б", "lat":50.447339, "lng":30.520288},
{"address":"Київ пушкінська  1", "lat":50.447515, "lng":30.519391},
{"address":"Київ пушкінська  3", "lat":50.552999, "lng":30.256694},
{"address":"Київ пушкінська  2", "lat":50.447549, "lng":30.518813},
{"address":"Київ пушкінська  4", "lat":50.553377, "lng":30.248127},
{"address":"Київ пушкінська  5", "lat":50.44720599999999, "lng":30.519276},
{"address":"Київ грінченка бориса  1", "lat":50.450287, "lng":30.521698},
{"address":"Київ грінченка бориса  2", "lat":50.450657, "lng":30.521497},
{"address":"Київ грінченка бориса  4", "lat":50.450514, "lng":30.521085}
]},
{"address":"Київ, вул. Прорізна 19", "title":"ТВО №218 ВД №75", "lat":50.448298, "lng":30.51666499999999, "bounds":
[{"address":"Київ володимирська 26(в)  33", "lat":50.450696, "lng":30.515804},
{"address":"Київ володимирська 26(в)  37", "lat":50.449758, "lng":30.515265},
{"address":"Київ володимирська 26(в)  40", "lat":50.451133, "lng":30.515052},
{"address":"Київ володимирська 26(в)  48", "lat":50.44730999999999, "lng":30.51343},
{"address":"Київ володимирська 26(в)  48а", "lat":50.447391, "lng":30.512784},
{"address":"Київ ярославів  1", "lat":50.449212, "lng":30.511858},
{"address":"Київ ярославів  4", "lat":50.449357, "lng":30.512914},
{"address":"Київ ярославів  6", "lat":50.44942100000001, "lng":30.512518},
{"address":"Київ ярославів  8", "lat":50.44953, "lng":30.512186},
{"address":"Київ ярославів  9", "lat":50.450212, "lng":30.510654},
{"address":"Київ ярославів  10", "lat":50.449729, "lng":30.512013},
{"address":"Київ ярославів  11", "lat":50.450399, "lng":30.510486},
{"address":"Київ ярославів  14", "lat":50.450407, "lng":30.511076},
{"address":"Київ ярославів  16", "lat":50.45063099999999, "lng":30.510846},
{"address":"Київ ярославів  20", "lat":50.45103599999999, "lng":30.510266},
{"address":"Київ золотоворітська  2", "lat":50.450122, "lng":30.513519},
{"address":"Київ золотоворітська  2а", "lat":50.450362, "lng":30.513477},
{"address":"Київ золотоворітська  4", "lat":50.449947, "lng":30.513366},
{"address":"Київ золотоворітська  8", "lat":50.449362, "lng":30.513209},
{"address":"Київ золотоворітська  13", "lat":50.449694, "lng":30.514012},
{"address":"Київ рейтарська  5", "lat":50.450967, "lng":30.513391},
{"address":"Київ рейтарська  7", "lat":50.450996, "lng":30.513155},
{"address":"Київ рейтарська  9", "lat":50.451097, "lng":30.512846},
{"address":"Київ рейтарська  11", "lat":50.451216, "lng":30.51258},
{"address":"Київ рейтарська  13", "lat":50.451286, "lng":30.51224},
{"address":"Київ рейтарська  17", "lat":50.451437, "lng":30.5116},
{"address":"Київ рейтарська  21", "lat":50.451608, "lng":30.510773}
]},
{"address":"Київ, вул. Леонтовича. 11", "title":"ТВО №218 ВД №76", "lat":50.444672, "lng":30.50985800000001, "bounds":
[{"address":"Київ хмельницького богдана  21а", "lat":50.445711, "lng":30.511988},
{"address":"Київ хмельницького богдана  23", "lat":50.446065, "lng":30.511524},
{"address":"Київ хмельницького богдана  26в1", "lat":50.4501, "lng":30.5234},
{"address":"Київ хмельницького богдана  26в2", "lat":50.4501, "lng":30.5234},
{"address":"Київ хмельницького богдана  27", "lat":50.49649410000001, "lng":30.6124253},
{"address":"Київ хмельницького богдана  29", "lat":50.4964921, "lng":30.6125128},
{"address":"Київ хмельницького богдана  300", "lat":50.446548, "lng":30.5101328},
{"address":"Київ хмельницького богдана  32", "lat":50.446821, "lng":30.510901},
{"address":"Київ хмельницького богдана  36", "lat":50.446851, "lng":30.510002},
{"address":"Київ володимирська  45", "lat":50.447953, "lng":30.51557},
{"address":"Київ володимирська  49а", "lat":50.447629, "lng":30.515439},
{"address":"Київ володимирська  51", "lat":50.446922, "lng":30.514764},
{"address":"Київ володимирська  53", "lat":50.44482989999999, "lng":30.5128414},
{"address":"Київ лисенка  1", "lat":50.448331, "lng":30.512447},
{"address":"Київ лисенка  2а", "lat":50.448898, "lng":30.511352},
{"address":"Київ лисенка  3", "lat":50.44779, "lng":30.512446},
{"address":"Київ лисенка  4", "lat":50.448438, "lng":30.51195},
{"address":"Київ лисенка  6(в)", "lat":50.447737, "lng":30.511359},
{"address":"Київ лисенка  8", "lat":50.447109, "lng":30.511334},
{"address":"Київ франка івана  3", "lat":50.359586, "lng":30.68846899999999},
{"address":"Київ франка івана  7", "lat":50.449499, "lng":30.510131},
{"address":"Київ франка івана  9", "lat":50.448936, "lng":30.509901},
{"address":"Київ франка івана  13", "lat":50.448711, "lng":30.5103},
{"address":"Київ франка івана  15", "lat":50.44851600000001, "lng":30.51016499999999},
{"address":"Київ франка івана  17", "lat":50.448413, "lng":30.50968},
{"address":"Київ франка івана  250", "lat":50.448177, "lng":30.5091832},
{"address":"Київ франка івана  27", "lat":50.4478917, "lng":30.509043},
{"address":"Київ леонтовича  1", "lat":50.44603799999999, "lng":30.510375},
{"address":"Київ леонтовича  5", "lat":50.445652, "lng":30.51022},
{"address":"Київ леонтовича  6а", "lat":50.445593, "lng":30.50907},
{"address":"Київ леонтовича  7", "lat":50.445419, "lng":30.510143}
]},
{"address":"Київ, вул. Володимирська 1/15", "title":"ТВО №218 ВД №77", "lat":50.45776799999999, "lng":30.518560999999977, "bounds":
[{"address":"Київ велика житомирська  4", "lat":50.455581, "lng":30.518753},
{"address":"Київ велика житомирська  6", "lat":50.45557700000001, "lng":30.51826999999999},
{"address":"Київ велика житомирська  6а", "lat":50.455939, "lng":30.518344},
{"address":"Київ велика житомирська  61", "lat":50.4551829, "lng":30.5077484},
{"address":"Київ велика житомирська  8аб", "lat":50.4501, "lng":30.5234},
{"address":"Київ велика житомирська  84", "lat":50.4551829, "lng":30.5077484},
{"address":"Київ велика житомирська  10", "lat":50.455593, "lng":30.51492},
{"address":"Київ велика житомирська  12", "lat":50.455628, "lng":30.514504},
{"address":"Київ велика житомирська  14", "lat":50.455583, "lng":30.514143},
{"address":"Київ велика житомирська  16", "lat":50.455697, "lng":30.51388},
{"address":"Київ володимирська  4", "lat":50.4572097, "lng":30.5177659},
{"address":"Київ володимирська  5", "lat":50.456987, "lng":30.518103},
{"address":"Київ володимирська  6", "lat":50.456132, "lng":30.528409},
{"address":"Київ володимирська  7", "lat":50.45671, "lng":30.518422},
{"address":"Київ володимирська  9", "lat":50.456263, "lng":30.517846},
{"address":"Київ володимирська  12в", "lat":50.456008, "lng":30.516198},
{"address":"Київ володимирська  18", "lat":50.454106, "lng":30.5166154},
{"address":"Київ володимирська  20а", "lat":50.4525371, "lng":30.5159777},
{"address":"Київ володимирська  20б", "lat":50.4525371, "lng":30.5159777},
{"address":"Київ володимирська  22", "lat":50.453553, "lng":30.515231},
{"address":"Київ десятинна  1", "lat":50.456211, "lng":30.520555},
{"address":"Київ десятинна  7", "lat":50.4568563, "lng":30.5200869},
{"address":"Київ десятинна  8", "lat":50.457779, "lng":30.519799},
{"address":"Київ десятинна  10", "lat":50.457937, "lng":30.519342},
{"address":"Київ десятинна  13", "lat":50.457491, "lng":30.519227},
{"address":"Київ десятинний  7", "lat":50.457083, "lng":30.51633799999999},
{"address":"Київ рильський  3", "lat":50.454315, "lng":30.51471299999999},
{"address":"Київ рильський  5", "lat":50.4543366, "lng":30.5155281},
{"address":"Київ георгіївський  2", "lat":50.45158800000001, "lng":30.514367},
{"address":"Київ георгіївський  5", "lat":50.451584, "lng":30.513292},
{"address":"Київ стрілецька  4", "lat":50.454699, "lng":30.513383},
{"address":"Київ стрілецька  7", "lat":50.4545968, "lng":30.5135244},
{"address":"Київ стрілецька  24", "lat":50.452282, "lng":30.511044}
]},
{"address":"Київ, Львівська площа 14", "title":"ТВО №218 ВД №78", "lat":50.454615, "lng":30.50505099999998, "bounds":
[{"address":"Київ велика житомирська  13", "lat":50.455202, "lng":30.514556},
{"address":"Київ велика житомирська  17", "lat":50.455066, "lng":30.513556},
{"address":"Київ велика житомирська  21", "lat":50.45520699999999, "lng":30.512399},
{"address":"Київ велика житомирська  23", "lat":50.45517599999999, "lng":30.512037},
{"address":"Київ велика житомирська  24б", "lat":50.455914, "lng":30.511823},
{"address":"Київ велика житомирська  25", "lat":50.454972, "lng":30.511233},
{"address":"Київ велика житомирська  26", "lat":50.455457, "lng":30.511433},
{"address":"Київ велика житомирська  27", "lat":50.4552801, "lng":30.511199},
{"address":"Київ велика житомирська  29аб", "lat":50.45509800000001, "lng":30.51081799999999},
{"address":"Київ велика житомирська  30а", "lat":50.455362, "lng":30.510162},
{"address":"Київ велика житомирська  31", "lat":50.455054, "lng":30.50995},
{"address":"Київ велика житомирська  34", "lat":50.455358, "lng":30.509461},
{"address":"Київ велика житомирська  38", "lat":50.455301, "lng":30.508269},
{"address":"Київ велика житомирська  40", "lat":50.455495, "lng":30.507831},
{"address":"Київ рейтарська  2", "lat":50.451277, "lng":30.513447},
{"address":"Київ рейтарська  16", "lat":50.451912, "lng":30.511455},
{"address":"Київ рейтарська  18", "lat":50.45197599999999, "lng":30.511222},
{"address":"Київ рейтарська  204", "lat":50.45193800000001, "lng":30.51076999999999},
{"address":"Київ рейтарська  28", "lat":50.45338, "lng":30.509118},
{"address":"Київ рейтарська  29", "lat":50.452514, "lng":30.509478},
{"address":"Київ рейтарська  30", "lat":50.453577, "lng":30.508933},
{"address":"Київ рейтарська  32", "lat":50.454085, "lng":30.508827},
{"address":"Київ рейтарська  34", "lat":50.454238, "lng":30.50864799999999},
{"address":"Київ стрітенська  2", "lat":50.45423160000001, "lng":30.5108088},
{"address":"Київ стрітенська  43", "lat":50.4549061, "lng":30.5083451},
{"address":"Київ стрітенська  11", "lat":50.454303, "lng":30.509231},
{"address":"Київ стрітенська  13", "lat":50.454584, "lng":30.508998},
{"address":"Київ стрітенська  17", "lat":50.454784, "lng":30.508179},
{"address":"Київ гончара олеся  6", "lat":50.454525, "lng":30.511132},
{"address":"Київ гончара олеся  8", "lat":50.45400799999999, "lng":30.510808},
{"address":"Київ гончара олеся  9", "lat":50.454475, "lng":30.511789},
{"address":"Київ гончара олеся  12", "lat":50.453658, "lng":30.50990299999999},
{"address":"Київ гончара олеся  14", "lat":50.45327, "lng":30.509827},
{"address":"Київ гончара олеся  146", "lat":50.4473089, "lng":30.4947637},
{"address":"Київ гончара олеся  15", "lat":50.44979499999999, "lng":30.503931},
{"address":"Київ гончара олеся  21", "lat":50.45334, "lng":30.510936},
{"address":"Київ гончара олеся  25", "lat":50.453111, "lng":30.510181}
]},
{"address":"Київ, вул. Рейтарська, 22", "title":"ТВО №218 ВД №79", "lat":50.452473, "lng":30.510418999999956, "bounds":
[{"address":"Київ рейтарська  22", "lat":50.452473, "lng":30.510419}
]},
{"address":"Київ, вул. Артема 27", "title":"ТВО №218 ВД №80", "lat":50.45576399999999, "lng":30.499856000000023, "bounds":
[{"address":"Київ артема (січових стрільців) 5абв  7", "lat":50.4501, "lng":30.5234},
{"address":"Київ артема (січових стрільців) 5абв  9в", "lat":50.4501, "lng":30.5234},
{"address":"Київ артема (січових стрільців) 5абв  10", "lat":50.4501, "lng":30.5234},
{"address":"Київ артема (січових стрільців) 5абв  12", "lat":50.4501, "lng":30.5234},
{"address":"Київ артема (січових стрільців) 5абв  14", "lat":50.4501, "lng":30.5234},
{"address":"Київ артема (січових стрільців) 5абв  14а", "lat":50.4501, "lng":30.5234},
{"address":"Київ артема (січових стрільців) 5абв  24", "lat":50.4501, "lng":30.5234},
{"address":"Київ 24(в)  26а", "lat":50.4061695, "lng":30.6584783},
{"address":"Київ 24(в)  28а", "lat":50.4061695, "lng":30.6584783},
{"address":"Київ 24(в)  30аб", "lat":50.4501, "lng":30.5234},
{"address":"Київ 24(в)  31", "lat":50.4061695, "lng":30.6584783},
{"address":"Київ 24(в)  33аб", "lat":50.4501, "lng":30.5234},
{"address":"Київ 24(в)  35", "lat":50.4061695, "lng":30.6584783},
{"address":"Київ площ.львівська  4", "lat":50.455828, "lng":30.507264},
{"address":"Київ площ.львівська  4а", "lat":50.455751, "lng":30.50757},
{"address":"Київ некрасовська  1", "lat":50.455775, "lng":30.4976018},
{"address":"Київ некрасовська  3", "lat":50.455818, "lng":30.497883},
{"address":"Київ обсерваторна  3", "lat":50.45287399999999, "lng":30.499323},
{"address":"Київ обсерваторна  5", "lat":50.453052, "lng":30.500913},
{"address":"Київ обсерваторна  7", "lat":50.453269, "lng":30.500953},
{"address":"Київ обсерваторна  8", "lat":50.45473759999999, "lng":30.5025047},
{"address":"Київ обсерваторна  9", "lat":50.453482, "lng":30.50104499999999},
{"address":"Київ обсерваторна  10", "lat":50.454432, "lng":30.502161},
{"address":"Київ обсерваторна  11", "lat":50.4547539, "lng":30.5016152},
{"address":"Київ обсерваторна  12аб", "lat":50.4501, "lng":30.5234},
{"address":"Київ обсерваторна  135", "lat":50.454277, "lng":30.501459},
{"address":"Київ обсерваторна  17", "lat":50.45474, "lng":30.501343},
{"address":"Київ обсерваторна  21", "lat":50.45550799999999, "lng":30.501574},
{"address":"Київ обсерваторна  23", "lat":50.455792, "lng":30.501659}
]},
{"address":"Київ, вул. Смирнова - Ласточкіна  14", "title":"ТВО №218 ВД №81", "lat":50.457391, "lng":30.506077000000005, "bounds":
[{"address":"Київ кудрявська  2", "lat":50.457246, "lng":30.501613},
{"address":"Київ кудрявська  5", "lat":50.457234, "lng":30.500738},
{"address":"Київ кудрявська  7", "lat":50.457552, "lng":30.500721},
{"address":"Київ кудрявська  8", "lat":50.4577173, "lng":30.5009326},
{"address":"Київ кудрявська  8аб", "lat":50.4501, "lng":30.5234},
{"address":"Київ кудрявська  10", "lat":50.457805, "lng":30.501182},
{"address":"Київ кудрявська  10б", "lat":50.457891, "lng":30.501561},
{"address":"Київ кудрявська  12", "lat":50.45807199999999, "lng":30.501046},
{"address":"Київ кудрявська  139", "lat":50.4586455, "lng":30.503735},
{"address":"Київ кудрявська  16", "lat":50.458727, "lng":30.5007},
{"address":"Київ кудрявська  279", "lat":50.457592, "lng":30.5010659},
{"address":"Київ кудрявська  313", "lat":50.457592, "lng":30.5010659},
{"address":"Київ кудрявська  43", "lat":50.458985, "lng":30.503051},
{"address":"Київ кудрявська  47", "lat":50.458733, "lng":30.503864},
{"address":"Київ кудрявський узвіз  2", "lat":50.457594, "lng":30.500104},
{"address":"Київ кудрявський узвіз  4", "lat":50.458157, "lng":30.499701},
{"address":"Київ кудрявський узвіз  5", "lat":50.460733, "lng":30.495741},
{"address":"Київ кудрявський узвіз  5а", "lat":50.461011, "lng":30.495739},
{"address":"Київ смирнова ласточкіна  3", "lat":50.456838, "lng":30.505161},
{"address":"Київ смирнова ласточкіна  13", "lat":50.458061, "lng":30.505999},
{"address":"Київ смирнова ласточкіна  14", "lat":50.457391, "lng":30.506077},
{"address":"Київ смирнова ласточкіна  18", "lat":50.457789, "lng":30.506438},
{"address":"Київ смирнова ласточкіна  18а", "lat":50.457673, "lng":30.507042},
{"address":"Київ смирнова ласточкіна  20", "lat":50.458867, "lng":30.507505},
{"address":"Київ смирнова ласточкіна  23аб", "lat":50.4501, "lng":30.5234},
{"address":"Київ нестерівський  10", "lat":50.456733, "lng":30.504691}
]},
{"address":"Київ, вул. Смірнова-Ласточкіна, 22", "title":"ТВО №218 ВД №82", "lat":50.460107, "lng":30.507133000000067, "bounds":
[{"address":"Київ україни ", "lat":50.45, "lng":30.5238889}
]},
{"address":"Київ, вул. Некрасівська 4", "title":"ТВО №218 ВД №83", "lat":50.454868, "lng":30.49678199999994, "bounds":
[{"address":"Київ артема (січових стрільців)  32", "lat":50.4553455, "lng":30.505085},
{"address":"Київ артема (січових стрільців)  38", "lat":50.4553455, "lng":30.505085},
{"address":"Київ артема (січових стрільців)  40", "lat":50.4553455, "lng":30.505085},
{"address":"Київ артема (січових стрільців)  42", "lat":50.4553455, "lng":30.505085},
{"address":"Київ артема (січових стрільців)  44", "lat":50.4553455, "lng":30.505085},
{"address":"Київ артема (січових стрільців)  47", "lat":50.4553455, "lng":30.505085},
{"address":"Київ артема (січових стрільців)  47а", "lat":50.4553455, "lng":30.505085},
{"address":"Київ артема (січових стрільців)  48", "lat":50.4553455, "lng":30.505085},
{"address":"Київ артема (січових стрільців)  49", "lat":50.4553455, "lng":30.505085},
{"address":"Київ артема (січових стрільців)  52", "lat":50.4553455, "lng":30.505085},
{"address":"Київ артема (січових стрільців)  52а", "lat":50.4553455, "lng":30.505085},
{"address":"Київ артема (січових стрільців)  53", "lat":50.4553455, "lng":30.505085},
{"address":"Київ бехтерєвський  3", "lat":50.456885, "lng":30.495448},
{"address":"Київ бехтерєвський  4", "lat":50.456938, "lng":30.49616},
{"address":"Київ бехтерєвський  4а", "lat":50.456979, "lng":30.496608},
{"address":"Київ бехтерєвський  7", "lat":50.45729859999999, "lng":30.4956173},
{"address":"Київ бехтерєвський  8", "lat":50.457451, "lng":30.495898},
{"address":"Київ бехтерєвський  10", "lat":50.457783, "lng":30.496232},
{"address":"Київ бехтерєвський  13", "lat":50.457967, "lng":30.495332},
{"address":"Київ бехтерєвський  13а", "lat":50.458033, "lng":30.494583},
{"address":"Київ бехтерєвський  14", "lat":50.45930569999999, "lng":30.4967707},
{"address":"Київ бехтерєвський  15", "lat":50.458506, "lng":30.49367},
{"address":"Київ некрасовська  6", "lat":50.455111, "lng":30.49762299999999},
{"address":"Київ некрасовська  8", "lat":50.454906, "lng":30.4979769}
]}
]